[
 {
   "latitude": -36.0294725,
   "longitude": 146.8970729,
   "Charger type": "AC (level 2)",
   "Name": "Albury Waste Management Centre",
   "State": "NSW",
   "stations": 1,
   "Plug types": "Tesla (Type 2)",
   "Charging Network": "Chargefox",
   "Power (kW)": null,
   "Hardware brand": "",
   "Address": "565 Mudge St, Hamilton Valley NSW 2641, Australia",
   "Postcode": 2641
 },
 {
   "latitude": -30.511849,
   "longitude": 151.6693816,
   "Charger type": "AC (level 2)",
   "Name": "Armidale Visitors Centre",
   "State": "NSW",
   "stations": 1,
   "Plug types": "Tesla (Type 2)",
   "Charging Network": "NRMA",
   "Power (kW)": 50,
   "Hardware brand": "",
   "Address": "82 Marsh St, Armidale NSW 2350, Australia",
   "Postcode": 2350
 },
 {
   "latitude": -33.9066374,
   "longitude": 151.2132494,
   "Charger type": "AC (level 2)",
   "Name": "Audi Centre Sydney",
   "State": "NSW",
   "stations": 1,
   "Plug types": "Tesla (Type 2)",
   "Charging Network": "Chargefox",
   "Power (kW)": null,
   "Hardware brand": "",
   "Address": "895 S Dowling St, Zetland NSW 2017, Australia",
   "Postcode": 2017
 },
 {
   "latitude": -28.8575428,
   "longitude": 153.5610963,
   "Charger type": "DC (level 3)",
   "Name": "Ballina Central Shopping Centre",
   "State": "NSW",
   "stations": 2,
   "Plug types": "Both CHAdeMO & CCS Combo 2/SAE",
   "Charging Network": "Chargefox",
   "Power (kW)": 350,
   "Hardware brand": "",
   "Address": "56 Bangalow Rd, Ballina NSW 2478, Australia",
   "Postcode": 2478
 },
 {
   "latitude": -34.8411176,
   "longitude": 148.9121914,
   "Charger type": "AC (level 2)",
   "Name": "Banjo Paterson Park",
   "State": "NSW",
   "stations": 1,
   "Plug types": "Type 2",
   "Charging Network": "NRMA",
   "Power (kW)": 50,
   "Hardware brand": "",
   "Address": "81 Meehan St, Yass NSW 2582, Australia",
   "Postcode": 2582
 },
 {
   "latitude": -35.7085809,
   "longitude": 150.1756837,
   "Charger type": "AC (level 2)",
   "Name": "Batemans Bay Visitor Centre",
   "State": "NSW",
   "stations": 1,
   "Plug types": "Tesla (Type 2)",
   "Charging Network": "NRMA",
   "Power (kW)": 50,
   "Hardware brand": "",
   "Address": "2A Beach Rd, Batemans Bay NSW 2536, Australia",
   "Postcode": 2536
 },
 {
   "latitude": -33.4186983,
   "longitude": 149.5867887,
   "Charger type": "AC (level 2)",
   "Name": "Bathurst Visitor Information Centre",
   "State": "NSW",
   "stations": 1,
   "Plug types": "Tesla (Type 2)",
   "Charging Network": "NRMA",
   "Power (kW)": 50,
   "Hardware brand": "Tritium",
   "Address": "1 Kendall Ave, Bathurst NSW 2795, Australia",
   "Postcode": 2795
 },
 {
   "latitude": -34.7760967,
   "longitude": 150.70099,
   "Charger type": "AC (level 2)",
   "Name": "Berry Bowling Club",
   "State": "NSW",
   "stations": 1,
   "Plug types": "Tesla (Type 2)",
   "Charging Network": "NRMA",
   "Power (kW)": 50,
   "Hardware brand": "",
   "Address": "140 Queen St, Berry NSW 2535, Australia",
   "Postcode": 2535
 },
 {
   "latitude": -32.6540422,
   "longitude": 151.9629131,
   "Charger type": "AC (level 2)",
   "Name": "BP Karuah",
   "State": "NSW",
   "stations": 2,
   "Plug types": "Tesla (Type 2)",
   "Charging Network": "Chargefox",
   "Power (kW)": 50,
   "Hardware brand": "",
   "Address": "403 Tarean Rd, Karuah NSW 2324, Australia",
   "Postcode": 2324
 },
 {
   "latitude": -28.6433595,
   "longitude": 153.6156974,
   "Charger type": "AC (level 2)",
   "Name": "Byron Bay Library",
   "State": "NSW",
   "stations": 1,
   "Plug types": "Type 2",
   "Charging Network": "EVUp",
   "Power (kW)": 50,
   "Hardware brand": "",
   "Address": "28 Lawson St, Byron Bay NSW 2481, Australia",
   "Postcode": 2481
 },
 {
   "latitude": -33.7695689,
   "longitude": 150.7339002,
   "Charger type": "AC (level 2)",
   "Name": "Caddens Corner",
   "State": "NSW",
   "stations": 1,
   "Plug types": "Type 2",
   "Charging Network": "Evie Networks",
   "Power (kW)": 112.5,
   "Hardware brand": "",
   "Address": "82a O'Connell St, Kingswood NSW 2747, Australia",
   "Postcode": 2747
 },
 {
   "latitude": -30.7098041,
   "longitude": 152.9198314,
   "Charger type": "AC (level 2)",
   "Name": "Caltex Macksville",
   "State": "NSW",
   "stations": 2,
   "Plug types": "Tesla (Type 2)",
   "Charging Network": "Evie Networks",
   "Power (kW)": 450,
   "Hardware brand": "",
   "Address": "Pacific Hwy, Macksville NSW 2447, Australia",
   "Postcode": 2447
 },
 {
   "latitude": -35.2774924,
   "longitude": 147.7358735,
   "Charger type": "DC (level 3)",
   "Name": "Caltex Tarcutta",
   "State": "NSW",
   "stations": 2,
   "Plug types": "Both CHAdeMO & CCS Combo 2/SAE",
   "Charging Network": "Evie Networks",
   "Power (kW)": 450,
   "Hardware brand": "",
   "Address": "32 Sydney St, Tarcutta NSW 2652, Australia",
   "Postcode": 2652
 },
 {
   "latitude": -36.6733612,
   "longitude": 149.8432026,
   "Charger type": "AC (level 2)",
   "Name": "Church St Car Park",
   "State": "NSW",
   "stations": 1,
   "Plug types": "Tesla (Type 2)",
   "Charging Network": "NRMA",
   "Power (kW)": 50,
   "Hardware brand": "",
   "Address": "81 Gipps St, Bega NSW 2550, Australia",
   "Postcode": 2550
 },
 {
   "latitude": -30.3178012,
   "longitude": 153.0899415,
   "Charger type": "AC (level 2)",
   "Name": "Coffs Harbour",
   "State": "NSW",
   "stations": 2,
   "Plug types": "Tesla (Type 2)",
   "Charging Network": "Chargefox",
   "Power (kW)": null,
   "Hardware brand": "",
   "Address": "coffs sevice centre, North Boambee Valley NSW 2450, Australia",
   "Postcode": 2450
 },
 {
   "latitude": -31.278816,
   "longitude": 149.279312,
   "Charger type": "AC (level 2)",
   "Name": "Coonabarabran Visitors Centre",
   "State": "NSW",
   "stations": 1,
   "Plug types": "Tesla (Type 2)",
   "Charging Network": "NRMA",
   "Power (kW)": 50,
   "Hardware brand": "",
   "Address": "Coonabarabran Coach, Coonabarabran NSW 2357, Australia",
   "Postcode": 2357
 },
 {
   "latitude": -33.8344591,
   "longitude": 148.6940855,
   "Charger type": "AC (level 2)",
   "Name": "Cowra Art Gallery Car Park",
   "State": "NSW",
   "stations": 1,
   "Plug types": "Tesla (Type 2)",
   "Charging Network": "NRMA",
   "Power (kW)": 50,
   "Hardware brand": "",
   "Address": "77 Darling St, Cowra NSW 2794, Australia",
   "Postcode": 2794
 },
 {
   "latitude": -35.7099345,
   "longitude": 150.1777589,
   "Charger type": "DC (level 3)",
   "Name": "Dan Murphy\\u2019s Batemans Bay",
   "State": "NSW",
   "stations": 1,
   "Plug types": "Both CHAdeMO & CCS Combo 2/SAE",
   "Charging Network": "Chargefox",
   "Power (kW)": 50,
   "Hardware brand": "",
   "Address": "51 Orient St, Batemans Bay NSW 2536, Australia",
   "Postcode": 2536
 },
 {
   "latitude": -33.9052704,
   "longitude": 151.2130888,
   "Charger type": "AC (level 2)",
   "Name": "East Village Shopping Centre",
   "State": "NSW",
   "stations": 2,
   "Plug types": "Tesla (Type 2)",
   "Charging Network": "Chargefox",
   "Power (kW)": 50,
   "Hardware brand": "Tritium",
   "Address": "4 Defries Ave, Zetland NSW 2017, Australia",
   "Postcode": 2017
 },
 {
   "latitude": -28.6258093,
   "longitude": 153.5869648,
   "Charger type": "AC (level 2)",
   "Name": "Elements of Byron Bay Car Park",
   "State": "NSW",
   "stations": 1,
   "Plug types": "Type 2",
   "Charging Network": "Chargefox",
   "Power (kW)": 50,
   "Hardware brand": "",
   "Address": "144 Bayshore Dr, Byron Bay NSW 2481, Australia",
   "Postcode": 2481
 },
 {
   "latitude": -29.7385773,
   "longitude": 151.7358401,
   "Charger type": "DC (level 3)",
   "Name": "Glen Innes Town Hall",
   "State": "NSW",
   "stations": 1,
   "Plug types": "Both CHAdeMO & CCS Combo 2/SAE",
   "Charging Network": "NRMA",
   "Power (kW)": 50,
   "Hardware brand": "",
   "Address": "265 Grey St, Glen Innes NSW 2370, Australia",
   "Postcode": 2370
 },
 {
   "latitude": -34.7479625,
   "longitude": 149.7496447,
   "Charger type": "AC (level 2)",
   "Name": "Goulburn Gateway Service Station",
   "State": "NSW",
   "stations": 2,
   "Plug types": "Tesla (Type 2)",
   "Charging Network": "Chargefox",
   "Power (kW)": null,
   "Hardware brand": "",
   "Address": "53 Sydney Rd, Goulburn NSW 2580, Australia",
   "Postcode": 2580
 },
 {
   "latitude": -29.6882866,
   "longitude": 152.9334258,
   "Charger type": "DC (level 3)",
   "Name": "Grafton Library Car Park",
   "State": "NSW",
   "stations": 1,
   "Plug types": "Both CHAdeMO & CCS Combo 2/SAE",
   "Charging Network": "NRMA",
   "Power (kW)": 50,
   "Hardware brand": "",
   "Address": "126-144 Pound St, Grafton NSW 2460, Australia",
   "Postcode": 2460
 },
 {
   "latitude": -31.0904667,
   "longitude": 150.9273942,
   "Charger type": "AC (level 2)",
   "Name": "Hands of Fame Park",
   "State": "NSW",
   "stations": 1,
   "Plug types": "Tesla (Type 2)",
   "Charging Network": "NRMA",
   "Power (kW)": 50,
   "Hardware brand": "",
   "Address": "2 Kable Ave, Tamworth NSW 2340, Australia",
   "Postcode": 2340
 },
 {
   "latitude": -32.7740327,
   "longitude": 151.2955771,
   "Charger type": "AC (level 2)",
   "Name": "Hunter Valley Gardens Carpark",
   "State": "NSW",
   "stations": 2,
   "Plug types": "Tesla (Type 2)",
   "Charging Network": "NRMA",
   "Power (kW)": 50,
   "Hardware brand": "",
   "Address": "2090 Broke Rd, Pokolbin NSW 2320, Australia",
   "Postcode": 2320
 },
 {
   "latitude": -34.4007439,
   "longitude": 150.8982098,
   "Charger type": "AC (level 2)",
   "Name": "Innovation Campus - SBRC (Building 237)",
   "State": "NSW",
   "stations": 1,
   "Plug types": "Tesla (Type 2)",
   "Charging Network": "ChargePoint",
   "Power (kW)": 50,
   "Hardware brand": "",
   "Address": "Innovation Way, North Wollongong NSW 2500, Australia",
   "Postcode": 2500
 },
 {
   "latitude": -34.8237247,
   "longitude": 148.3247877,
   "Charger type": "AC (level 2)",
   "Name": "Jugiong Playground and Swimming Pool",
   "State": "NSW",
   "stations": 1,
   "Plug types": "Tesla (Type 2)",
   "Charging Network": "NRMA",
   "Power (kW)": 50,
   "Hardware brand": "",
   "Address": "319 Riverside Dr, Jugiong NSW 2726, Australia",
   "Postcode": 2726
 },
 {
   "latitude": -32.0499784,
   "longitude": 150.8672054,
   "Charger type": "AC (level 2)",
   "Name": "Kelly St Car Park",
   "State": "NSW",
   "stations": 1,
   "Plug types": "Tesla (Type 2)",
   "Charging Network": "NRMA",
   "Power (kW)": 50,
   "Hardware brand": "",
   "Address": "167 Kelly St, Scone NSW 2337, Australia",
   "Postcode": 2337
 },
 {
   "latitude": -33.4777272,
   "longitude": 150.1609403,
   "Charger type": "AC (level 2)",
   "Name": "Lithgow Workies Club",
   "State": "NSW",
   "stations": 2,
   "Plug types": "Type 2",
   "Charging Network": "NRMA",
   "Power (kW)": 50,
   "Hardware brand": "",
   "Address": "3-7 Tank St, Lithgow NSW 2790, Australia",
   "Postcode": 2790
 },
 {
   "latitude": -30.9781149,
   "longitude": 150.2509491,
   "Charger type": "AC (level 2)",
   "Name": "Little Barber St Parking Lot",
   "State": "NSW",
   "stations": 1,
   "Plug types": "Tesla (Type 2)",
   "Charging Network": "NRMA",
   "Power (kW)": 50,
   "Hardware brand": "",
   "Address": "73 Little Barber St, Gunnedah NSW 2380, Australia",
   "Postcode": 2380
 },
 {
   "latitude": -34.3117962,
   "longitude": 148.2949118,
   "Charger type": "DC (level 3)",
   "Name": "Lovell St Car Park",
   "State": "NSW",
   "stations": 1,
   "Plug types": "Both CHAdeMO & CCS Combo 2/SAE",
   "Charging Network": "NRMA",
   "Power (kW)": 50,
   "Hardware brand": "",
   "Address": "88 Lovell St, Young NSW 2594, Australia",
   "Postcode": 2594
 },
 {
   "latitude": -35.3558361,
   "longitude": 145.7278158,
   "Charger type": "AC (level 2)",
   "Name": "Luke Park",
   "State": "NSW",
   "stations": 1,
   "Plug types": "Tesla (Type 2)",
   "Charging Network": "NRMA",
   "Power (kW)": 50,
   "Hardware brand": "",
   "Address": "33 Powell St, Jerilderie NSW 2716, Australia",
   "Postcode": 2716
 },
 {
   "latitude": -33.8961195,
   "longitude": 151.1951555,
   "Charger type": "AC (level 2)",
   "Name": "Mirvac South Eveleigh",
   "State": "NSW",
   "stations": 2,
   "Plug types": "Type 2",
   "Charging Network": "Chargefox",
   "Power (kW)": 50,
   "Hardware brand": "",
   "Address": "2 Central Ave, Eveleigh NSW 2015, Australia",
   "Postcode": 2015
 },
 {
   "latitude": -34.450216,
   "longitude": 150.4430868,
   "Charger type": "AC (level 2)",
   "Name": "Mittagong RSL Car Park",
   "State": "NSW",
   "stations": 1,
   "Plug types": "Tesla (Type 2)",
   "Charging Network": "NRMA",
   "Power (kW)": 50,
   "Hardware brand": "",
   "Address": "9 Bessemer St, Mittagong NSW 2575, Australia",
   "Postcode": 2575
 },
 {
   "latitude": -33.8255979,
   "longitude": 151.2413993,
   "Charger type": "AC (level 2)",
   "Name": "Mosman Council",
   "State": "NSW",
   "stations": 1,
   "Plug types": "Type 2",
   "Charging Network": "Evie Networks",
   "Power (kW)": 112.5,
   "Hardware brand": "",
   "Address": "6 Myahgah Rd, Mosman NSW 2088, Australia",
   "Postcode": 2088
 },
 {
   "latitude": -32.0993292,
   "longitude": 152.3811552,
   "Charger type": "DC (level 3)",
   "Name": "Nabiac Park",
   "State": "NSW",
   "stations": 1,
   "Plug types": "Tesla (Supercharger)",
   "Charging Network": "NRMA",
   "Power (kW)": 50,
   "Hardware brand": "",
   "Address": "35 Nabiac St, Nabiac NSW 2312, Australia",
   "Postcode": 2312
 },
 {
   "latitude": -34.7466273,
   "longitude": 146.5501803,
   "Charger type": "DC (level 3)",
   "Name": "Narrandera Park",
   "State": "NSW",
   "stations": 1,
   "Plug types": "Both CHAdeMO & CCS Combo 2/SAE",
   "Charging Network": "NRMA",
   "Power (kW)": 50,
   "Hardware brand": "",
   "Address": "31 Twynam St, Narrandera NSW 2700, Australia",
   "Postcode": 2700
 },
 {
   "latitude": -32.9334094,
   "longitude": 151.7585158,
   "Charger type": "AC (level 2)",
   "Name": "No. 2 Sportsground",
   "State": "NSW",
   "stations": 1,
   "Plug types": "J-1772",
   "Charging Network": "Chargefox",
   "Power (kW)": 50,
   "Hardware brand": "",
   "Address": "Smith St, Newcastle West NSW 2302, Australia",
   "Postcode": 2302
 },
 {
   "latitude": -32.5930036,
   "longitude": 149.5853108,
   "Charger type": "AC (level 2)",
   "Name": "NRMA - Club Mudgee Car Park",
   "State": "NSW",
   "stations": 1,
   "Plug types": "Type 2",
   "Charging Network": "NRMA",
   "Power (kW)": 50,
   "Hardware brand": "",
   "Address": "99 Mortimer St, Mudgee NSW 2850, Australia",
   "Postcode": 2850
 },
 {
   "latitude": -34.6400407,
   "longitude": 143.5641766,
   "Charger type": "AC (level 2)",
   "Name": "NRMA Balranald",
   "State": "NSW",
   "stations": 1,
   "Plug types": "J-1772",
   "Charging Network": "NRMA",
   "Power (kW)": 50,
   "Hardware brand": "",
   "Address": "89 Market St, Balranald NSW 2715, Australia",
   "Postcode": 2715
 },
 {
   "latitude": -34.5089694,
   "longitude": 144.8428368,
   "Charger type": "AC (level 2)",
   "Name": "NRMA Hay",
   "State": "NSW",
   "stations": 1,
   "Plug types": "Tesla (Type 2)",
   "Charging Network": "NRMA",
   "Power (kW)": 50,
   "Hardware brand": "",
   "Address": "406 Moppett St, Hay NSW 2711, Australia",
   "Postcode": 2711
 },
 {
   "latitude": -35.0023469,
   "longitude": 148.1102089,
   "Charger type": "AC (level 2)",
   "Name": "Oliver's Gundagai",
   "State": "NSW",
   "stations": 2,
   "Plug types": "Tesla (Type 2)",
   "Charging Network": "Chargefox",
   "Power (kW)": 50,
   "Hardware brand": "",
   "Address": "31 Annie Pyers Dr, Gundagai NSW 2722, Australia",
   "Postcode": 2722
 },
 {
   "latitude": -33.2817348,
   "longitude": 149.1034134,
   "Charger type": "AC (level 2)",
   "Name": "Orange Civic Centre Car Park",
   "State": "NSW",
   "stations": 1,
   "Plug types": "Tesla (Type 2)",
   "Charging Network": "NRMA",
   "Power (kW)": 50,
   "Hardware brand": "",
   "Address": "151a Byng St, Orange NSW 2800, Australia",
   "Postcode": 2800
 },
 {
   "latitude": -33.1371457,
   "longitude": 148.172794,
   "Charger type": "AC (level 2)",
   "Name": "Parkes Swimming Pool",
   "State": "NSW",
   "stations": 1,
   "Plug types": "Type 2",
   "Charging Network": "NRMA",
   "Power (kW)": 50,
   "Hardware brand": "",
   "Address": "27 Dalton St, Parkes NSW 2870, Australia",
   "Postcode": 2870
 },
 {
   "latitude": -31.4635754,
   "longitude": 152.8220345,
   "Charger type": "AC (level 2)",
   "Name": "Port Macquarie Service Centre",
   "State": "NSW",
   "stations": 2,
   "Plug types": "Tesla (Type 2)",
   "Charging Network": "Chargefox",
   "Power (kW)": 50,
   "Hardware brand": "",
   "Address": "1063 Oxley Hwy, Thrumster NSW 2444, Australia",
   "Postcode": 2444
 },
 {
   "latitude": -36.0837322,
   "longitude": 146.9143513,
   "Charger type": "AC (level 2)",
   "Name": "Rotary Kiewa St Market",
   "State": "NSW",
   "stations": 1,
   "Plug types": "Tesla (Type 2)",
   "Charging Network": "NRMA",
   "Power (kW)": 50,
   "Hardware brand": "",
   "Address": "Level 2/441 Kiewa St, Albury NSW 2640, Australia",
   "Postcode": 2640
 },
 {
   "latitude": -33.9238926,
   "longitude": 147.2037618,
   "Charger type": "AC (level 2)",
   "Name": "Shire St Parking/Charging",
   "State": "NSW",
   "stations": 1,
   "Plug types": "Tesla (Type 2)",
   "Charging Network": "NRMA",
   "Power (kW)": 50,
   "Hardware brand": "",
   "Address": "13-15 Shire St, West Wyalong NSW 2671, Australia",
   "Postcode": 2671
 },
 {
   "latitude": -36.2188263,
   "longitude": 149.1335079,
   "Charger type": "AC (level 2)",
   "Name": "Snowy Hydro Discovery Centre",
   "State": "NSW",
   "stations": 2,
   "Plug types": "Tesla (Type 2)",
   "Charging Network": "Chargefox",
   "Power (kW)": 350,
   "Hardware brand": "",
   "Address": "4-10 Yulin Ave, Cooma NSW 2630, Australia",
   "Postcode": 2630
 },
 {
   "latitude": -36.4155977,
   "longitude": 148.6221625,
   "Charger type": "DC (level 3)",
   "Name": "Snowy River Ave Car Park",
   "State": "NSW",
   "stations": 2,
   "Plug types": "Both CHAdeMO & CCS Combo 2/SAE",
   "Charging Network": "NRMA",
   "Power (kW)": 50,
   "Hardware brand": "",
   "Address": "3 Snowy River Ave, Jindabyne NSW 2627, Australia",
   "Postcode": 2627
 },
 {
   "latitude": -31.458288,
   "longitude": 152.828369,
   "Charger type": "DC (level 3)",
   "Name": "Sovereign Place",
   "State": "NSW",
   "stations": 2,
   "Plug types": "Tesla (Supercharger)",
   "Charging Network": "NRMA",
   "Power (kW)": 50,
   "Hardware brand": "",
   "Address": "John Oxley Dr before Chancellor Dr, Thrumster NSW 2444, Australia",
   "Postcode": 2444
 },
 {
   "latitude": -35.7175754,
   "longitude": 147.3176258,
   "Charger type": "AC (level 2)",
   "Name": "Submarine Park",
   "State": "NSW",
   "stations": 1,
   "Plug types": "Tesla (Type 2)",
   "Charging Network": "NRMA",
   "Power (kW)": 50,
   "Hardware brand": "",
   "Address": "7 Prospect St, Holbrook NSW 2644, Australia",
   "Postcode": 2644
 },
 {
   "latitude": -33.8458628,
   "longitude": 151.0696945,
   "Charger type": "AC (level 2)",
   "Name": "Sydney Olympic Park",
   "State": "NSW",
   "stations": 1,
   "Plug types": "Tesla (Type 2)",
   "Charging Network": "NRMA",
   "Power (kW)": 50,
   "Hardware brand": "Tesla",
   "Address": "9 Murray Rose Ave, Sydney Olympic Park NSW 2127, Australia",
   "Postcode": 2127
 },
 {
   "latitude": -31.9435087,
   "longitude": 152.4708761,
   "Charger type": "AC (level 2)",
   "Name": "Taree South Service Centre",
   "State": "NSW",
   "stations": 2,
   "Plug types": "Tesla (Type 2)",
   "Charging Network": "Evie Networks",
   "Power (kW)": 450,
   "Hardware brand": "",
   "Address": "201 Manning River Dr, Glenthorne NSW 2430, Australia",
   "Postcode": 2430
 },
 {
   "latitude": -29.0571876,
   "longitude": 152.0186766,
   "Charger type": "AC (level 2)",
   "Name": "Tenterfield Visitors Information Centre",
   "State": "NSW",
   "stations": 1,
   "Plug types": "Tesla (Type 2)",
   "Charging Network": "NRMA",
   "Power (kW)": 50,
   "Hardware brand": "",
   "Address": "157 Rouse St, Tenterfield NSW 2372, Australia",
   "Postcode": 2372
 },
 {
   "latitude": -28.6357744,
   "longitude": 153.5553165,
   "Charger type": "AC (level 2)",
   "Name": "The Farm Byron Bay",
   "State": "NSW",
   "stations": 2,
   "Plug types": "J-1772",
   "Charging Network": "NRMA",
   "Power (kW)": 50,
   "Hardware brand": "",
   "Address": "Flowerdale Farm, 11 Ewingsdale Rd, Ewingsdale NSW 2481, Australia",
   "Postcode": 2481
 },
 {
   "latitude": -35.1053553,
   "longitude": 147.373681,
   "Charger type": "AC (level 2)",
   "Name": "Wagga Wagga Cross St Car Park",
   "State": "NSW",
   "stations": 1,
   "Plug types": "Tesla (Type 2)",
   "Charging Network": "NRMA",
   "Power (kW)": 50,
   "Hardware brand": "",
   "Address": "Wagga Wagga NSW 2650, Australia",
   "Postcode": 2650
 },
 {
   "latitude": -32.9028112,
   "longitude": 151.6698641,
   "Charger type": "AC (level 2)",
   "Name": "Wallsend Car Park",
   "State": "NSW",
   "stations": 2,
   "Plug types": "Type 2",
   "Charging Network": "NRMA",
   "Power (kW)": 50,
   "Hardware brand": "",
   "Address": "76 Cowper St, Wallsend NSW 2287, Australia",
   "Postcode": 2287
 },
 {
   "latitude": -34.1682799,
   "longitude": 150.610914,
   "Charger type": "AC (level 2)",
   "Name": "Walton Lane Car Park",
   "State": "NSW",
   "stations": 1,
   "Plug types": "Tesla (Type 2)",
   "Charging Network": "NRMA",
   "Power (kW)": 50,
   "Hardware brand": "",
   "Address": "5 Walton Ln, Picton NSW 2571, Australia",
   "Postcode": 2571
 },
 {
   "latitude": -32.249559,
   "longitude": 148.6100591,
   "Charger type": "AC (level 2)",
   "Name": "Western Plains Cultural Centre",
   "State": "NSW",
   "stations": 1,
   "Plug types": "Type 2",
   "Charging Network": "NRMA",
   "Power (kW)": 50,
   "Hardware brand": "",
   "Address": "76 Wingewarra St, Dubbo NSW 2830, Australia",
   "Postcode": 2830
 },
 {
   "latitude": -34.5881897,
   "longitude": 150.8659787,
   "Charger type": "AC (level 2)",
   "Name": "Woolworths Shell Cove",
   "State": "NSW",
   "stations": 2,
   "Plug types": "Tesla (Type 2)",
   "Charging Network": "Chargefox",
   "Power (kW)": 350,
   "Hardware brand": "",
   "Address": "100 Cove Blvd, Shell Cove NSW 2529, Australia",
   "Postcode": 2529
 },
 {
   "latitude": -33.7670734,
   "longitude": 150.9549733,
   "Charger type": "AC (level 2)",
   "Name": "Ampol Seven Hills",
   "State": "NSW",
   "stations": 2,
   "Plug types": "Type 2",
   "Charging Network": "Evie Networks",
   "Power (kW)": 450,
   "Hardware brand": "",
   "Address": "38 Abbott Rd, Seven Hills NSW 2147, Australia",
   "Postcode": 2147
 },
 {
   "latitude": -33.7632734,
   "longitude": 151.0042477,
   "Charger type": "AC (level 2)",
   "Name": "Baulkham Hills Sports Club",
   "State": "NSW",
   "stations": 2,
   "Plug types": "Tesla (Type 2)",
   "Charging Network": "",
   "Power (kW)": null,
   "Hardware brand": "",
   "Address": "11 Renown Rd, Baulkham Hills NSW 2153, Australia",
   "Postcode": 2153
 },
 {
   "latitude": -33.7632734,
   "longitude": 151.0042477,
   "Charger type": "AC (level 2)",
   "Name": "Baulkham Hills Sports Club",
   "State": "NSW",
   "stations": 1,
   "Plug types": "Tesla (Type 2)",
   "Charging Network": "",
   "Power (kW)": null,
   "Hardware brand": "",
   "Address": "11 Renown Rd, Baulkham Hills NSW 2153, Australia",
   "Postcode": 2153
 },
 {
   "latitude": -33.8555224,
   "longitude": 151.1621054,
   "Charger type": "AC (level 2)",
   "Name": "Birkenhead Point Outlet Centre",
   "State": "NSW",
   "stations": 1,
   "Plug types": "Type 2",
   "Charging Network": "",
   "Power (kW)": null,
   "Hardware brand": "",
   "Address": "19 Roseby St, Drummoyne NSW 2047, Australia",
   "Postcode": 2047
 },
 {
   "latitude": -33.8827784,
   "longitude": 151.1948135,
   "Charger type": "AC (level 2)",
   "Name": "Broadway Shopping Centre",
   "State": "NSW",
   "stations": 2,
   "Plug types": "Tesla (Type 2)",
   "Charging Network": "",
   "Power (kW)": null,
   "Hardware brand": "",
   "Address": "31 Bay St, Glebe NSW 2037, Australia",
   "Postcode": 2037
 },
 {
   "latitude": -33.7695689,
   "longitude": 150.7339002,
   "Charger type": "AC (level 2)",
   "Name": "Caddens Corner",
   "State": "NSW",
   "stations": 2,
   "Plug types": "Tesla (Type 2)",
   "Charging Network": "Evie Networks",
   "Power (kW)": 23.04,
   "Hardware brand": "",
   "Address": "82a O'Connell St, Kingswood NSW 2747, Australia",
   "Postcode": 2747
 },
 {
   "latitude": -33.5683775,
   "longitude": 150.2001079,
   "Charger type": "DC (level 3)",
   "Name": "Charles Dalglish",
   "State": "NSW",
   "stations": 2,
   "Plug types": "Both CHAdeMO & CCS Combo 2/SAE",
   "Charging Network": "",
   "Power (kW)": null,
   "Hardware brand": "",
   "Address": "43 Baaners Ln, Little Hartley NSW 2790, Australia",
   "Postcode": 2790
 },
 {
   "latitude": -33.7209507,
   "longitude": 151.043454,
   "Charger type": "AC (level 2)",
   "Name": "Cherrybrook Village",
   "State": "NSW",
   "stations": 2,
   "Plug types": "Type 2",
   "Charging Network": "",
   "Power (kW)": null,
   "Hardware brand": "",
   "Address": "Shop 42/47 Shepherds Dr, Cherrybrook NSW 2126, Australia",
   "Postcode": 2126
 },
 {
   "latitude": -33.8150984,
   "longitude": 151.0040097,
   "Charger type": "AC (level 2)",
   "Name": "City Centre Secure",
   "State": "NSW",
   "stations": 1,
   "Plug types": "Type 2",
   "Charging Network": "",
   "Power (kW)": null,
   "Hardware brand": "",
   "Address": "23 Horwood Pl, Parramatta NSW 2150, Australia",
   "Postcode": 2150
 },
 {
   "latitude": -32.8846225,
   "longitude": 151.7283475,
   "Charger type": "AC (level 2)",
   "Name": "CSIRO Energy Centre",
   "State": "NSW",
   "stations": 1,
   "Plug types": "J-1772",
   "Charging Network": "",
   "Power (kW)": null,
   "Hardware brand": "",
   "Address": "10 Murray Dwyer Cct, Mayfield West NSW 2304, Australia",
   "Postcode": 2304
 },
 {
   "latitude": -33.2278234,
   "longitude": 150.2080922,
   "Charger type": "AC (level 2)",
   "Name": "Emirates One & Only Wolgan Valley",
   "State": "NSW",
   "stations": 1,
   "Plug types": "Tesla (Type 2)",
   "Charging Network": "",
   "Power (kW)": null,
   "Hardware brand": "",
   "Address": "2600 Wolgan Rd, Wolgan Valley NSW 2790, Australia",
   "Postcode": 2790
 },
 {
   "latitude": -34.5801684,
   "longitude": 142.7433766,
   "Charger type": "AC (level 2)",
   "Name": "Euston Bowling & Recreation Club",
   "State": "NSW",
   "stations": 1,
   "Plug types": "Type 2",
   "Charging Network": "",
   "Power (kW)": 22,
   "Hardware brand": "",
   "Address": "2/28 Nixon St, Euston NSW 2737, Australia",
   "Postcode": 2737
 },
 {
   "latitude": -33.7692352,
   "longitude": 150.9469445,
   "Charger type": "AC (level 2)",
   "Name": "evse.com.au",
   "State": "NSW",
   "stations": 1,
   "Plug types": "Tesla (Type 2)",
   "Charging Network": "",
   "Power (kW)": null,
   "Hardware brand": "",
   "Address": "14/13 Brumby St, Seven Hills NSW 2147, Australia",
   "Postcode": 2147
 },
 {
   "latitude": -33.7208785,
   "longitude": 150.3514193,
   "Charger type": "AC (level 2)",
   "Name": "Fairmont Resort Blue Mountains",
   "State": "NSW",
   "stations": 2,
   "Plug types": "Tesla (Type 2)",
   "Charging Network": "ChargePoint",
   "Power (kW)": null,
   "Hardware brand": "",
   "Address": "1 Sublime Point Rd, Leura NSW 2780, Australia",
   "Postcode": 2780
 },
 {
   "latitude": -34.7559863,
   "longitude": 149.720717,
   "Charger type": "AC (level 2)",
   "Name": "Goulburn Visitor Information Centre",
   "State": "NSW",
   "stations": 1,
   "Plug types": "Tesla (Type 2)",
   "Charging Network": "",
   "Power (kW)": null,
   "Hardware brand": "",
   "Address": "201 Sloane St, Goulburn NSW 2580, Australia",
   "Postcode": 2580
 },
 {
   "latitude": -35.377242,
   "longitude": 149.241433,
   "Charger type": "DC (level 3)",
   "Name": "GRAHAM and FIN's charger",
   "State": "NSW",
   "stations": 1,
   "Plug types": "Both CHAdeMO & CCS Combo 2/SAE",
   "Charging Network": "",
   "Power (kW)": null,
   "Hardware brand": "",
   "Address": "6 Webber Pl, Karabar NSW 2620, Australia",
   "Postcode": 2620
 },
 {
   "latitude": -33.628374,
   "longitude": 150.832673,
   "Charger type": "AC (level 2)",
   "Name": "GT Tooling",
   "State": "NSW",
   "stations": 1,
   "Plug types": "Tesla (Type 2)",
   "Charging Network": "",
   "Power (kW)": null,
   "Hardware brand": "",
   "Address": "34 Railway Rd S, Mulgrave NSW 2756, Australia",
   "Postcode": 2756
 },
 {
   "latitude": -33.5688932,
   "longitude": 150.2041974,
   "Charger type": "AC (level 2)",
   "Name": "Hartley Green Power",
   "State": "NSW",
   "stations": 2,
   "Plug types": "Type 2",
   "Charging Network": "",
   "Power (kW)": null,
   "Hardware brand": "",
   "Address": "22 Coxs River Rd, Little Hartley NSW 2790, Australia",
   "Postcode": 2790
 },
 {
   "latitude": -33.9269751,
   "longitude": 151.1895731,
   "Charger type": "AC (level 2)",
   "Name": "Holiday Inn Sydney Airport",
   "State": "NSW",
   "stations": 1,
   "Plug types": "Tesla (Type 2)",
   "Charging Network": "ChargePoint",
   "Power (kW)": null,
   "Hardware brand": "",
   "Address": "154 O'Riordan St, Mascot NSW 2020, Australia",
   "Postcode": 2020
 },
 {
   "latitude": -32.8780102,
   "longitude": 151.6968309,
   "Charger type": "AC (level 2)",
   "Name": "Hunter Wetlands Centre",
   "State": "NSW",
   "stations": 1,
   "Plug types": "Tesla (Type 2)",
   "Charging Network": "",
   "Power (kW)": null,
   "Hardware brand": "",
   "Address": "412 Sandgate Rd, Shortland NSW 2307, Australia",
   "Postcode": 2307
 },
 {
   "latitude": -33.8751814,
   "longitude": 151.1998628,
   "Charger type": "AC (level 2)",
   "Name": "ICC Sydney Exhibition Centre Car Park (Car Park 1)",
   "State": "NSW",
   "stations": 20,
   "Plug types": "Tesla (Type 2)",
   "Charging Network": "ChargePoint",
   "Power (kW)": null,
   "Hardware brand": "",
   "Address": "14 Darling Dr, Sydney NSW 2000, Australia",
   "Postcode": 2000
 },
 {
   "latitude": -32.9239076,
   "longitude": 151.7462861,
   "Charger type": "AC (level 2)",
   "Name": "Kloster Nissan",
   "State": "NSW",
   "stations": 1,
   "Plug types": "J-1772",
   "Charging Network": "",
   "Power (kW)": null,
   "Hardware brand": "",
   "Address": "Tudor St, Hamilton DC NSW 2303, Australia",
   "Postcode": 2303
 },
 {
   "latitude": -33.7760506,
   "longitude": 151.1222793,
   "Charger type": "DC (level 3)",
   "Name": "Macquarie Centre - Chargepoint",
   "State": "NSW",
   "stations": 2,
   "Plug types": "Both CHAdeMO & CCS Combo 2/SAE",
   "Charging Network": "ChargePoint",
   "Power (kW)": 6.6,
   "Hardware brand": "",
   "Address": "63 Talavera Rd, Macquarie Park NSW 2113, Australia",
   "Postcode": 2113
 },
 {
   "latitude": -33.8842625,
   "longitude": 151.203022,
   "Charger type": "AC (level 2)",
   "Name": "Mercure Hotel",
   "State": "NSW",
   "stations": 1,
   "Plug types": "Tesla (Type 2)",
   "Charging Network": "ChargePoint",
   "Power (kW)": null,
   "Hardware brand": "",
   "Address": "Shop 1/820 George St, Sydney NSW 2000, Australia",
   "Postcode": 2000
 },
 {
   "latitude": -34.4499343,
   "longitude": 150.4519611,
   "Charger type": "AC (level 2)",
   "Name": "Mittagong Visitor Information Centre",
   "State": "NSW",
   "stations": 1,
   "Plug types": "Type 2",
   "Charging Network": "EVUp",
   "Power (kW)": 6.6,
   "Hardware brand": "",
   "Address": "70 Main St, Mittagong NSW 2575, Australia",
   "Postcode": 2575
 },
 {
   "latitude": -33.3934017,
   "longitude": 151.3293208,
   "Charger type": "DC (level 3)",
   "Name": "Narara Ecovillage Coffee Cart",
   "State": "NSW",
   "stations": 1,
   "Plug types": "Both CHAdeMO & CCS Combo 2/SAE",
   "Charging Network": "",
   "Power (kW)": null,
   "Hardware brand": "",
   "Address": "30 Gugandi Rd, Narara NSW 2250, Australia",
   "Postcode": 2250
 },
 {
   "latitude": -33.8269518,
   "longitude": 151.199066,
   "Charger type": "DC (level 3)",
   "Name": "Nicholson St Carpark",
   "State": "NSW",
   "stations": 1,
   "Plug types": "Both CHAdeMO & CCS Combo 2/SAE",
   "Charging Network": "",
   "Power (kW)": null,
   "Hardware brand": "",
   "Address": "19 Nicholson St, Wollstonecraft NSW 2065, Australia",
   "Postcode": 2065
 },
 {
   "latitude": -33.7991358,
   "longitude": 151.1786013,
   "Charger type": "AC (level 2)",
   "Name": "North Shore BMW",
   "State": "NSW",
   "stations": 2,
   "Plug types": "Type 2",
   "Charging Network": "ChargePoint",
   "Power (kW)": null,
   "Hardware brand": "",
   "Address": "676 Pacific Hwy, Chatswood NSW 2067, Australia",
   "Postcode": 2067
 },
 {
   "latitude": -33.8199946,
   "longitude": 151.0262131,
   "Charger type": "AC (level 2)",
   "Name": "Parramatta Motor Group, Service Centre",
   "State": "NSW",
   "stations": 1,
   "Plug types": "Type 2",
   "Charging Network": "",
   "Power (kW)": null,
   "Hardware brand": "",
   "Address": "3 Grand Ave, Camellia NSW 2142, Australia",
   "Postcode": 2142
 },
 {
   "latitude": -33.8247653,
   "longitude": 151.0046269,
   "Charger type": "AC (level 2)",
   "Name": "Parramatta Nissan",
   "State": "NSW",
   "stations": 1,
   "Plug types": "Tesla (Type 2)",
   "Charging Network": "ChargePoint",
   "Power (kW)": null,
   "Hardware brand": "",
   "Address": "Raymond St & Church St, Parramatta NSW 2150, Australia",
   "Postcode": 2150
 },
 {
   "latitude": -33.7503559,
   "longitude": 151.2859224,
   "Charger type": "AC (level 2)",
   "Name": "PCYC Carpark - 1",
   "State": "NSW",
   "stations": 2,
   "Plug types": "Tesla (Type 2)",
   "Charging Network": "ChargePoint",
   "Power (kW)": 6.6,
   "Hardware brand": "",
   "Address": "42-46 Kingsway, Dee Why NSW 2099, Australia",
   "Postcode": 2099
 },
 {
   "latitude": -33.9799572,
   "longitude": 151.2513183,
   "Charger type": "AC (level 2)",
   "Name": "Prince Henry Centre",
   "State": "NSW",
   "stations": 1,
   "Plug types": "Type 2",
   "Charging Network": "",
   "Power (kW)": null,
   "Hardware brand": "",
   "Address": "Little Bay Beach, 4R Coast Hospital Rd, Little Bay NSW 2036, Australia",
   "Postcode": 2036
 },
 {
   "latitude": -33.8351248,
   "longitude": 151.084473,
   "Charger type": "AC (level 2)",
   "Name": "Rhodes Waterside",
   "State": "NSW",
   "stations": 1,
   "Plug types": "Tesla (Type 2)",
   "Charging Network": "",
   "Power (kW)": null,
   "Hardware brand": "",
   "Address": "1 Rider Blvd, Rhodes NSW 2138, Australia",
   "Postcode": 2138
 },
 {
   "latitude": -33.6906736,
   "longitude": 150.9258319,
   "Charger type": "AC (level 2)",
   "Name": "Rouse Hill Town Centre - Purple Car Park",
   "State": "NSW",
   "stations": 2,
   "Plug types": "Type 2",
   "Charging Network": "ChargePoint",
   "Power (kW)": 6.6,
   "Hardware brand": "",
   "Address": "72 Civic Way, Rouse Hill NSW 2155, Australia",
   "Postcode": 2155
 },
 {
   "latitude": -33.7930797,
   "longitude": 151.2643177,
   "Charger type": "DC (level 3)",
   "Name": "Stockland Balgowlah",
   "State": "NSW",
   "stations": 3,
   "Plug types": "Tesla (Supercharger)",
   "Charging Network": "ChargePoint",
   "Power (kW)": 6.6,
   "Hardware brand": "",
   "Address": "197-215 Condamine St, Balgowlah NSW 2093, Australia",
   "Postcode": 2093
 },
 {
   "latitude": -33.7590552,
   "longitude": 150.9915552,
   "Charger type": "AC (level 2)",
   "Name": "Stockland Baulkham Hills Mall",
   "State": "NSW",
   "stations": 2,
   "Plug types": "Tesla (Type 2)",
   "Charging Network": "ChargePoint",
   "Power (kW)": null,
   "Hardware brand": "",
   "Address": "375 Windsor Rd, Baulkham Hills NSW 2153, Australia",
   "Postcode": 2153
 },
 {
   "latitude": -33.8236017,
   "longitude": 151.2097047,
   "Charger type": "AC (level 2)",
   "Name": "Stockland Cammeray",
   "State": "NSW",
   "stations": 1,
   "Plug types": "J-1772",
   "Charging Network": "ChargePoint",
   "Power (kW)": null,
   "Hardware brand": "",
   "Address": "450 Miller St, Cammeray NSW 2062, Australia",
   "Postcode": 2062
 },
 {
   "latitude": -32.1995922,
   "longitude": 152.5200713,
   "Charger type": "AC (level 2)",
   "Name": "Stockland Forster",
   "State": "NSW",
   "stations": 2,
   "Plug types": "Type 2",
   "Charging Network": "ChargePoint",
   "Power (kW)": 6.6,
   "Hardware brand": "",
   "Address": "123 Breese Parade, Forster NSW 2428, Australia",
   "Postcode": 2428
 },
 {
   "latitude": -32.9343229,
   "longitude": 151.6421833,
   "Charger type": "AC (level 2)",
   "Name": "Stockland Glendale",
   "State": "NSW",
   "stations": 1,
   "Plug types": "J-1772",
   "Charging Network": "",
   "Power (kW)": null,
   "Hardware brand": "",
   "Address": "387 Lake Rd, Glendale NSW 2285, Australia",
   "Postcode": 2285
 },
 {
   "latitude": -32.7607519,
   "longitude": 151.5907354,
   "Charger type": "AC (level 2)",
   "Name": "Stockland Green Hills",
   "State": "NSW",
   "stations": 2,
   "Plug types": "Tesla (Type 2)",
   "Charging Network": "ChargePoint",
   "Power (kW)": null,
   "Hardware brand": "",
   "Address": "12 Mitchell Dr, East Maitland NSW 2323, Australia",
   "Postcode": 2323
 },
 {
   "latitude": -32.9027533,
   "longitude": 151.6902806,
   "Charger type": "AC (level 2)",
   "Name": "Stockland Jesmond",
   "State": "NSW",
   "stations": 1,
   "Plug types": "Type 2",
   "Charging Network": "",
   "Power (kW)": null,
   "Hardware brand": "",
   "Address": "28 Blue Gum Rd, Jesmond NSW 2299, Australia",
   "Postcode": 2299
 },
 {
   "latitude": -34.56286,
   "longitude": 150.8402774,
   "Charger type": "DC (level 3)",
   "Name": "Stockland Shellharbour - East",
   "State": "NSW",
   "stations": 2,
   "Plug types": "Both CHAdeMO & CCS Combo 2/SAE",
   "Charging Network": "ChargePoint",
   "Power (kW)": null,
   "Hardware brand": "",
   "Address": "211 Lake Entrance Rd, Shellharbour City Centre NSW 2529, Australia",
   "Postcode": 2529
 },
 {
   "latitude": -34.5649659,
   "longitude": 150.840232,
   "Charger type": "AC (level 2)",
   "Name": "Stockland Shellharbour - West",
   "State": "NSW",
   "stations": 2,
   "Plug types": "J-1772",
   "Charging Network": "ChargePoint",
   "Power (kW)": null,
   "Hardware brand": "",
   "Address": "Ground, Stockland Shellharbour, 211 Lake Entrance Rd, Shellharbour NSW 2529, Australia",
   "Postcode": 2529
 },
 {
   "latitude": -27.6163325,
   "longitude": 153.1235879,
   "Charger type": "AC (level 2)",
   "Name": "Suzi Auto Services & OZ DIY EV",
   "State": "QLD",
   "stations": 1,
   "Plug types": "Type 2",
   "Charging Network": "",
   "Power (kW)": null,
   "Hardware brand": "",
   "Address": "3339 Pacific Hwy, Underwood QLD 4119, Australia",
   "Postcode": 4119
 },
 {
   "latitude": -33.8705139,
   "longitude": 151.1187607,
   "Charger type": "DC (level 3)",
   "Name": "Sydney City Traders",
   "State": "NSW",
   "stations": 1,
   "Plug types": "Both CHAdeMO & CCS Combo 2/SAE",
   "Charging Network": "",
   "Power (kW)": null,
   "Hardware brand": "",
   "Address": "153 Parramatta Rd, Five Dock NSW 2046, Australia",
   "Postcode": 2046
 },
 {
   "latitude": -33.8631454,
   "longitude": 151.0718938,
   "Charger type": "DC (level 3)",
   "Name": "Sydney Markets",
   "State": "NSW",
   "stations": 1,
   "Plug types": "Tesla (Supercharger)",
   "Charging Network": "",
   "Power (kW)": null,
   "Hardware brand": "",
   "Address": "250/318 Parramatta Rd, Homebush West NSW 2140, Australia",
   "Postcode": 2140
 },
 {
   "latitude": -33.860054,
   "longitude": 151.0712501,
   "Charger type": "AC (level 2)",
   "Name": "Sydney Markets",
   "State": "NSW",
   "stations": 2,
   "Plug types": "Type 2",
   "Charging Network": "",
   "Power (kW)": null,
   "Hardware brand": "",
   "Address": "250/318 Parramatta Rd, Homebush West NSW 2140, Australia",
   "Postcode": 2140
 },
 {
   "latitude": -33.6774245,
   "longitude": 150.2815125,
   "Charger type": "AC (level 2)",
   "Name": "The Hydro Majestic Hotel Blue Mountains",
   "State": "NSW",
   "stations": 1,
   "Plug types": "Type 2",
   "Charging Network": "",
   "Power (kW)": null,
   "Hardware brand": "",
   "Address": "52-88 Great Western Hwy, Medlow Bath NSW 2780, Australia",
   "Postcode": 2780
 },
 {
   "latitude": -31.4309607,
   "longitude": 152.918799,
   "Charger type": "DC (level 3)",
   "Name": "The Observatory Port Macquarie",
   "State": "NSW",
   "stations": 2,
   "Plug types": "Tesla (Supercharger)",
   "Charging Network": "",
   "Power (kW)": null,
   "Hardware brand": "",
   "Address": "40 William St, Port Macquarie NSW 2444, Australia",
   "Postcode": 2444
 },
 {
   "latitude": -33.8761055,
   "longitude": 151.1783737,
   "Charger type": "AC (level 2)",
   "Name": "Tramsheds Harold Park",
   "State": "NSW",
   "stations": 1,
   "Plug types": "Tesla (Type 2)",
   "Charging Network": "",
   "Power (kW)": null,
   "Hardware brand": "",
   "Address": "1 Dalgal Way, Forest Lodge NSW 2037, Australia",
   "Postcode": 2037
 },
 {
   "latitude": -33.7467694,
   "longitude": 150.9028037,
   "Charger type": "AC (level 2)",
   "Name": "Visionstream",
   "State": "NSW",
   "stations": 2,
   "Plug types": "Type 2",
   "Charging Network": "ChargePoint",
   "Power (kW)": 6.6,
   "Hardware brand": "",
   "Address": "20 Bowmans Rd, Kings Park NSW 2148, Australia",
   "Postcode": 2148
 },
 {
   "latitude": -33.942461,
   "longitude": 151.0937237,
   "Charger type": "DC (level 3)",
   "Name": "Visionstream Kingsgrove Office Carpark",
   "State": "NSW",
   "stations": 2,
   "Plug types": "Both CHAdeMO & CCS Combo 2/SAE",
   "Charging Network": "ChargePoint",
   "Power (kW)": null,
   "Hardware brand": "",
   "Address": "111 Vanessa St, Kingsgrove NSW 2208, Australia",
   "Postcode": 2208
 },
 {
   "latitude": -33.9113775,
   "longitude": 150.935893,
   "Charger type": "AC (level 2)",
   "Name": "Volvo Cars Liverpool",
   "State": "NSW",
   "stations": 1,
   "Plug types": "Tesla (Type 2)",
   "Charging Network": "",
   "Power (kW)": null,
   "Hardware brand": "",
   "Address": "13 Hume Hwy, Warwick Farm NSW 2170, Australia",
   "Postcode": 2170
 },
 {
   "latitude": -33.8930533,
   "longitude": 151.2512645,
   "Charger type": "DC (level 3)",
   "Name": "Westfield Bondi Junction - Car Park P3",
   "State": "NSW",
   "stations": 4,
   "Plug types": "Both CHAdeMO & CCS Combo 2/SAE",
   "Charging Network": "ChargePoint",
   "Power (kW)": 6.6,
   "Hardware brand": "",
   "Address": "13 Waverley St, Bondi Junction NSW 2022, Australia",
   "Postcode": 2022
 },
 {
   "latitude": -33.8915695,
   "longitude": 151.2505012,
   "Charger type": "AC (level 2)",
   "Name": "Westfield Bondi Junction - Valet Parking",
   "State": "NSW",
   "stations": 2,
   "Plug types": "Tesla (Type 2)",
   "Charging Network": "ChargePoint",
   "Power (kW)": null,
   "Hardware brand": "",
   "Address": "500 Oxford St, Bondi Junction NSW 2022, Australia",
   "Postcode": 2022
 },
 {
   "latitude": -33.7967682,
   "longitude": 151.1828639,
   "Charger type": "AC (level 2)",
   "Name": "Westfield Chatswood Underground Car Park",
   "State": "NSW",
   "stations": 4,
   "Plug types": "Tesla (Type 2)",
   "Charging Network": "ChargePoint",
   "Power (kW)": 6.6,
   "Hardware brand": "",
   "Address": "1 Anderson St, Chatswood NSW 2067, Australia",
   "Postcode": 2067
 },
 {
   "latitude": -34.0355512,
   "longitude": 151.1006368,
   "Charger type": "AC (level 2)",
   "Name": "Westfield Miranda",
   "State": "NSW",
   "stations": 4,
   "Plug types": "Tesla (Type 2)",
   "Charging Network": "ChargePoint",
   "Power (kW)": null,
   "Hardware brand": "",
   "Address": "600 Kingsway, Miranda NSW 2228, Australia",
   "Postcode": 2228
 },
 {
   "latitude": -33.8221879,
   "longitude": 151.0038102,
   "Charger type": "AC (level 2)",
   "Name": "Westfield Parramatta",
   "State": "NSW",
   "stations": 4,
   "Plug types": "Tesla (Type 2)",
   "Charging Network": "ChargePoint",
   "Power (kW)": null,
   "Hardware brand": "",
   "Address": "59 Church St, Parramatta NSW 2150, Australia",
   "Postcode": 2150
 },
 {
   "latitude": -33.869167,
   "longitude": 151.2087416,
   "Charger type": "AC (level 2)",
   "Name": "Westfield Sydney Central Plaza",
   "State": "NSW",
   "stations": 1,
   "Plug types": "Tesla (Type 2)",
   "Charging Network": "",
   "Power (kW)": null,
   "Hardware brand": "",
   "Address": "135 King St, Sydney NSW 2000, Australia",
   "Postcode": 2000
 },
 {
   "latitude": -33.7703548,
   "longitude": 151.2661042,
   "Charger type": "AC (level 2)",
   "Name": "Westfield Warringah Mall",
   "State": "NSW",
   "stations": 4,
   "Plug types": "J-1772",
   "Charging Network": "ChargePoint",
   "Power (kW)": null,
   "Hardware brand": "",
   "Address": "Condamine St & Old Pittwater Rd, North Manly NSW 2100, Australia",
   "Postcode": 2100
 },
 {
   "latitude": -33.9761725,
   "longitude": 150.8124232,
   "Charger type": "AC (level 2)",
   "Name": "Willowdale Shopping Centre",
   "State": "NSW",
   "stations": 2,
   "Plug types": "Type 2",
   "Charging Network": "ChargePoint",
   "Power (kW)": null,
   "Hardware brand": "",
   "Address": "5 Willowdale Dr, Denham Court NSW 2565, Australia",
   "Postcode": 2565
 },
 {
   "latitude": -34.4234883,
   "longitude": 150.8922583,
   "Charger type": "AC (level 2)",
   "Name": "Wollongong Central - P1 Basement",
   "State": "NSW",
   "stations": 1,
   "Plug types": "Tesla (Type 2)",
   "Charging Network": "",
   "Power (kW)": null,
   "Hardware brand": "",
   "Address": "71 Market St, Wollongong NSW 2500, Australia",
   "Postcode": 2500
 },
 {
   "latitude": -33.9518884,
   "longitude": 150.8553024,
   "Charger type": "DC (level 3)",
   "Name": "Woolworths - Prestons",
   "State": "NSW",
   "stations": 4,
   "Plug types": "Both CHAdeMO & CCS Combo 2/SAE",
   "Charging Network": "ChargePoint",
   "Power (kW)": null,
   "Hardware brand": "",
   "Address": "1975 Camden Valley Way, Prestons NSW 2170, Australia",
   "Postcode": 2170
 },
 {
   "latitude": -33.4186983,
   "longitude": 149.5867887,
   "Charger type": "AC (level 2)",
   "Name": "Bathurst Supercharger",
   "State": "NSW",
   "stations": 6,
   "Plug types": "Type 2",
   "Charging Network": "Supercharger",
   "Power (kW)": 120,
   "Hardware brand": "Tesla",
   "Address": "1 Kendall Ave, Bathurst NSW 2795, Australia",
   "Postcode": 2795
 },
 {
   "latitude": -34.8081727,
   "longitude": 150.6362791,
   "Charger type": "AC (level 2)",
   "Name": "Berry Supercharger",
   "State": "NSW",
   "stations": 6,
   "Plug types": "Type 2",
   "Charging Network": "Supercharger",
   "Power (kW)": 120,
   "Hardware brand": "Tesla",
   "Address": "640 Princes Hwy, Jaspers Brush NSW 2535, Australia",
   "Postcode": 2535
 },
 {
   "latitude": -33.3129437,
   "longitude": 151.4218481,
   "Charger type": "AC (level 2)",
   "Name": "Central Coast Supercharger",
   "State": "NSW",
   "stations": 6,
   "Plug types": "Tesla (Type 2)",
   "Charging Network": "Supercharger",
   "Power (kW)": 120,
   "Hardware brand": "Tesla",
   "Address": "Wyong Rd & Bryant Dr, Tuggerah NSW 2259, Australia",
   "Postcode": 2259
 },
 {
   "latitude": -30.2826558,
   "longitude": 153.1314176,
   "Charger type": "AC (level 2)",
   "Name": "Coffs Harbour Supercharger",
   "State": "NSW",
   "stations": 6,
   "Plug types": "Tesla (Type 2)",
   "Charging Network": "Supercharger",
   "Power (kW)": 120,
   "Hardware brand": "Tesla",
   "Address": "253 Pacific Hwy, Coffs Harbour NSW 2450, Australia",
   "Postcode": 2450
 },
 {
   "latitude": -36.236015,
   "longitude": 149.1261314,
   "Charger type": "AC (level 2)",
   "Name": "Cooma Supercharger",
   "State": "NSW",
   "stations": 4,
   "Plug types": "Tesla (Type 2)",
   "Charging Network": "Supercharger",
   "Power (kW)": 120,
   "Hardware brand": "Tesla",
   "Address": "97 Commissioner St, Cooma NSW 2630, Australia",
   "Postcode": 2630
 },
 {
   "latitude": -32.249559,
   "longitude": 148.6100591,
   "Charger type": "AC (level 2)",
   "Name": "Dubbo Supercharger",
   "State": "NSW",
   "stations": 4,
   "Plug types": "Tesla (Type 2)",
   "Charging Network": "Supercharger",
   "Power (kW)": 120,
   "Hardware brand": "Tesla",
   "Address": "76 Wingewarra St, Dubbo NSW 2830, Australia",
   "Postcode": 2830
 },
 {
   "latitude": -34.7559863,
   "longitude": 149.720717,
   "Charger type": "DC (level 3)",
   "Name": "Goulburn Supercharger",
   "State": "NSW",
   "stations": 8,
   "Plug types": "Tesla (Supercharger)",
   "Charging Network": "Supercharger",
   "Power (kW)": 120,
   "Hardware brand": "",
   "Address": "201 Sloane St, Goulburn NSW 2580, Australia",
   "Postcode": 2580
 },
 {
   "latitude": -35.001912,
   "longitude": 148.111399,
   "Charger type": "DC (level 3)",
   "Name": "Gundagai Supercharger",
   "State": "NSW",
   "stations": 6,
   "Plug types": "Both CHAdeMO & CCS Combo 2/SAE",
   "Charging Network": "Supercharger",
   "Power (kW)": 120,
   "Hardware brand": "Tesla",
   "Address": "Snake Gully, 34 Annie Pyers Dr, Gundagai NSW 2722, Australia",
   "Postcode": 2722
 },
 {
   "latitude": -32.7877473,
   "longitude": 151.7278323,
   "Charger type": "AC (level 2)",
   "Name": "Heatherbrae Supercharger",
   "State": "NSW",
   "stations": 6,
   "Plug types": "Tesla (Type 2)",
   "Charging Network": "Supercharger",
   "Power (kW)": 120,
   "Hardware brand": "Tesla",
   "Address": "2285 Pacific Hwy, Heatherbrae NSW 2324, Australia",
   "Postcode": 2324
 },
 {
   "latitude": -32.4483139,
   "longitude": 150.8314993,
   "Charger type": "AC (level 2)",
   "Name": "Hollydene Supercharger",
   "State": "NSW",
   "stations": 6,
   "Plug types": "Type 2",
   "Charging Network": "Supercharger",
   "Power (kW)": 120,
   "Hardware brand": "Tesla",
   "Address": "3483 Golden Hwy, Jerrys Plains NSW 2330, Australia",
   "Postcode": 2330
 },
 {
   "latitude": -28.7498479,
   "longitude": 153.5331633,
   "Charger type": "AC (level 2)",
   "Name": "Knockrow Supercharger",
   "State": "NSW",
   "stations": 6,
   "Plug types": "Type 2",
   "Charging Network": "Supercharger",
   "Power (kW)": 120,
   "Hardware brand": "Tesla",
   "Address": "419 Hinterland Way, Knockrow NSW 2479, Australia",
   "Postcode": 2479
 },
 {
   "latitude": -29.422442,
   "longitude": 153.2399732,
   "Charger type": "AC (level 2)",
   "Name": "Maclean Supercharger",
   "State": "NSW",
   "stations": 4,
   "Plug types": "Tesla (Type 2)",
   "Charging Network": "Supercharger",
   "Power (kW)": 120,
   "Hardware brand": "",
   "Address": "56 Morpeth St, Harwood NSW 2465, Australia",
   "Postcode": 2465
 },
 {
   "latitude": -33.7772778,
   "longitude": 151.1236512,
   "Charger type": "AC (level 2)",
   "Name": "Macquarie Park Supercharger",
   "State": "NSW",
   "stations": 10,
   "Plug types": "Type 2",
   "Charging Network": "Supercharger",
   "Power (kW)": 120,
   "Hardware brand": "Tesla",
   "Address": "55-61 Talavera Rd, Macquarie Park NSW 2113, Australia",
   "Postcode": 2113
 },
 {
   "latitude": -36.2224529,
   "longitude": 150.1277229,
   "Charger type": "AC (level 2)",
   "Name": "Narooma Supercharger",
   "State": "NSW",
   "stations": 4,
   "Plug types": "Tesla (Type 2)",
   "Charging Network": "Supercharger",
   "Power (kW)": 120,
   "Hardware brand": "Tesla",
   "Address": "183 Princes Hwy, Narooma NSW 2546, Australia",
   "Postcode": 2546
 },
 {
   "latitude": -31.4358331,
   "longitude": 152.8236011,
   "Charger type": "DC (level 3)",
   "Name": "Port Macquarie Supercharger",
   "State": "NSW",
   "stations": 6,
   "Plug types": "Both CHAdeMO & CCS Combo 2/SAE",
   "Charging Network": "Supercharger",
   "Power (kW)": 120,
   "Hardware brand": "Tesla",
   "Address": "10 Winery Dr, Port Macquarie NSW 2444, Australia",
   "Postcode": 2444
 },
 {
   "latitude": -33.8829417,
   "longitude": 151.1941191,
   "Charger type": "AC (level 2)",
   "Name": "Sydney Broadway Supercharger",
   "State": "NSW",
   "stations": 8,
   "Plug types": "Tesla (Type 2)",
   "Charging Network": "Supercharger",
   "Power (kW)": 120,
   "Hardware brand": "Tesla",
   "Address": "1 Bay St, Glebe NSW 2037, Australia",
   "Postcode": 2037
 },
 {
   "latitude": -31.1012565,
   "longitude": 150.9168989,
   "Charger type": "AC (level 2)",
   "Name": "Tamworth Supercharger",
   "State": "NSW",
   "stations": 4,
   "Plug types": "Tesla (Type 2)",
   "Charging Network": "Supercharger",
   "Power (kW)": 120,
   "Hardware brand": "Tesla",
   "Address": "25 Park St, West Tamworth NSW 2340, Australia",
   "Postcode": 2340
 },
 {
   "latitude": -33.3927632,
   "longitude": 149.5188753,
   "Charger type": "AC (level 2)",
   "Name": "Abercrombie House",
   "State": "NSW",
   "stations": 2,
   "Plug types": "Type 2",
   "Charging Network": "Tesla Destination",
   "Power (kW)": 22,
   "Hardware brand": "Tesla",
   "Address": "311 Ophir Rd, Stewarts Mount NSW 2795, Australia",
   "Postcode": 2795
 },
 {
   "latitude": -32.2522027,
   "longitude": 148.5898971,
   "Charger type": "AC (level 2)",
   "Name": "Akuna Motor Inn & Apartments",
   "State": "NSW",
   "stations": 1,
   "Plug types": "J-1772",
   "Charging Network": "Tesla Destination",
   "Power (kW)": 22,
   "Hardware brand": "Tesla",
   "Address": "109 Whylandra St, Dubbo NSW 2830, Australia",
   "Postcode": 2830
 },
 {
   "latitude": -31.9028943,
   "longitude": 152.4776342,
   "Charger type": "AC (level 2)",
   "Name": "Alabaster Motor Inn",
   "State": "NSW",
   "stations": 2,
   "Plug types": "Tesla (Type 2)",
   "Charging Network": "Tesla Destination",
   "Power (kW)": 22,
   "Hardware brand": "Tesla",
   "Address": "23 Oxley St, Taree NSW 2430, Australia",
   "Postcode": 2430
 },
 {
   "latitude": -33.8019653,
   "longitude": 150.8709764,
   "Charger type": "AC (level 2)",
   "Name": "Alpha Hotel Eastern Creek",
   "State": "NSW",
   "stations": 2,
   "Plug types": "Type 2",
   "Charging Network": "Tesla Destination",
   "Power (kW)": 22,
   "Hardware brand": "Tesla",
   "Address": "1 Peter Brock Dr, Eastern Creek NSW 2766, Australia",
   "Postcode": 2766
 },
 {
   "latitude": -32.7199671,
   "longitude": 152.1356612,
   "Charger type": "AC (level 2)",
   "Name": "Amarna Luxury Beach Resort",
   "State": "NSW",
   "stations": 2,
   "Plug types": "Tesla (Type 2)",
   "Charging Network": "Tesla Destination",
   "Power (kW)": 5,
   "Hardware brand": "",
   "Address": "16 Christmas Bush Ave, Nelson Bay NSW 2315, Australia",
   "Postcode": 2315
 },
 {
   "latitude": -31.4073033,
   "longitude": 152.9008719,
   "Charger type": "AC (level 2)",
   "Name": "Ana Mandara Luxury Bed & Breakfast",
   "State": "NSW",
   "stations": 2,
   "Plug types": "J-1772",
   "Charging Network": "Tesla Destination",
   "Power (kW)": 14,
   "Hardware brand": "",
   "Address": "152 Settlement Point Rd, Port Macquarie NSW 2444, Australia",
   "Postcode": 2444
 },
 {
   "latitude": -36.2198467,
   "longitude": 150.133492,
   "Charger type": "AC (level 2)",
   "Name": "Anchors Aweigh Narooma",
   "State": "NSW",
   "stations": 2,
   "Plug types": "Type 2",
   "Charging Network": "Tesla Destination",
   "Power (kW)": 22,
   "Hardware brand": "Tesla",
   "Address": "5 Tilba St, Narooma NSW 2546, Australia",
   "Postcode": 2546
 },
 {
   "latitude": -30.4952258,
   "longitude": 151.6694665,
   "Charger type": "AC (level 2)",
   "Name": "Armidale Motel",
   "State": "NSW",
   "stations": 2,
   "Plug types": "J-1772",
   "Charging Network": "Tesla Destination",
   "Power (kW)": 11,
   "Hardware brand": "Tesla",
   "Address": "66 Glen Innes Rd, Armidale NSW 2350, Australia",
   "Postcode": 2350
 },
 {
   "latitude": -31.4312459,
   "longitude": 152.8968271,
   "Charger type": "AC (level 2)",
   "Name": "Aston Hill Motor Lodge",
   "State": "NSW",
   "stations": 2,
   "Plug types": "Type 2",
   "Charging Network": "Tesla Destination",
   "Power (kW)": 22,
   "Hardware brand": "Tesla",
   "Address": "15 Mort St, Port Macquarie NSW 2444, Australia",
   "Postcode": 2444
 },
 {
   "latitude": -33.8093977,
   "longitude": 151.1507426,
   "Charger type": "AC (level 2)",
   "Name": "ATI Australia",
   "State": "NSW",
   "stations": 1,
   "Plug types": "Type 2",
   "Charging Network": "",
   "Power (kW)": null,
   "Hardware brand": "Tesla",
   "Address": "5/27 Mars Rd, Lane Cove West NSW 2066, Australia",
   "Postcode": 2066
 },
 {
   "latitude": -33.806416,
   "longitude": 150.9031472,
   "Charger type": "AC (level 2)",
   "Name": "Atura Blacktown",
   "State": "NSW",
   "stations": 1,
   "Plug types": "J-1772",
   "Charging Network": "Tesla Destination",
   "Power (kW)": 22,
   "Hardware brand": "Tesla",
   "Address": "32 Cricketers Arms Rd, Prospect NSW 2148, Australia",
   "Postcode": 2148
 },
 {
   "latitude": -36.0798273,
   "longitude": 146.9123515,
   "Charger type": "AC (level 2)",
   "Name": "Atura Hotel Albury",
   "State": "NSW",
   "stations": 1,
   "Plug types": "Type 2",
   "Charging Network": "Tesla Destination",
   "Power (kW)": 8,
   "Hardware brand": "Tesla",
   "Address": "Country Comfort Hotel, 648 Dean St, Albury NSW 2640, Australia",
   "Postcode": 2640
 },
 {
   "latitude": -33.8327117,
   "longitude": 151.0215668,
   "Charger type": "AC (level 2)",
   "Name": "Australasian Sports Centre Parramatta",
   "State": "NSW",
   "stations": 2,
   "Plug types": "Tesla (Type 2)",
   "Charging Network": "Tesla Destination",
   "Power (kW)": 22,
   "Hardware brand": "",
   "Address": "20 Wentworth St, Clyde NSW 2142, Australia",
   "Postcode": 2142
 },
 {
   "latitude": -34.8503176,
   "longitude": 150.7478922,
   "Charger type": "AC (level 2)",
   "Name": "Bangalay Luxury Villas",
   "State": "NSW",
   "stations": 4,
   "Plug types": "Type 2",
   "Charging Network": "Tesla Destination",
   "Power (kW)": 22,
   "Hardware brand": "Tesla",
   "Address": "30 Staples St, Shoalhaven Heads NSW 2535, Australia",
   "Postcode": 2535
 },
 {
   "latitude": -34.7414729,
   "longitude": 150.45349,
   "Charger type": "DC (level 3)",
   "Name": "Banksia Park cottages",
   "State": "NSW",
   "stations": 2,
   "Plug types": "Both CHAdeMO & CCS Combo 2/SAE",
   "Charging Network": "Tesla Destination",
   "Power (kW)": 6,
   "Hardware brand": "Tesla",
   "Address": "114 Radiata Rd, Kangaroo Valley NSW 2577, Australia",
   "Postcode": 2577
 },
 {
   "latitude": -33.9199788,
   "longitude": 151.0333375,
   "Charger type": "AC (level 2)",
   "Name": "Bankstown Sports Club",
   "State": "NSW",
   "stations": 2,
   "Plug types": "Tesla (Type 2)",
   "Charging Network": "Tesla Destination",
   "Power (kW)": 4,
   "Hardware brand": "Tesla",
   "Address": "8 Greenfield Parade, Bankstown NSW 2200, Australia",
   "Postcode": 2200
 },
 {
   "latitude": -32.7111973,
   "longitude": 152.0722165,
   "Charger type": "AC (level 2)",
   "Name": "Bannisters",
   "State": "NSW",
   "stations": 2,
   "Plug types": "Type 2",
   "Charging Network": "Tesla Destination",
   "Power (kW)": 14,
   "Hardware brand": "",
   "Address": "Salamander Shores Hotel, 147 Soldiers Point Rd, Soldiers Point NSW 2317, Australia",
   "Postcode": 2317
 },
 {
   "latitude": -35.3222306,
   "longitude": 150.4849315,
   "Charger type": "AC (level 2)",
   "Name": "Bannisters by the Sea",
   "State": "NSW",
   "stations": 1,
   "Plug types": "Tesla (Type 2)",
   "Charging Network": "Tesla Destination",
   "Power (kW)": 22,
   "Hardware brand": "Tesla",
   "Address": "191 Mitchell Parade, Mollymook Beach NSW 2539, Australia",
   "Postcode": 2539
 },
 {
   "latitude": -35.3250315,
   "longitude": 150.4763976,
   "Charger type": "AC (level 2)",
   "Name": "Bannisters Pavilion",
   "State": "NSW",
   "stations": 1,
   "Plug types": "Tesla (Type 2)",
   "Charging Network": "Tesla Destination",
   "Power (kW)": 22,
   "Hardware brand": "Tesla",
   "Address": "87 Tallwood Ave, Mollymook Beach NSW 2539, Australia",
   "Postcode": 2539
 },
 {
   "latitude": -35.7094784,
   "longitude": 150.1790805,
   "Charger type": "AC (level 2)",
   "Name": "Batemans Bay Soldiers Club",
   "State": "NSW",
   "stations": 1,
   "Plug types": "Tesla (Type 2)",
   "Charging Network": "Tesla Destination",
   "Power (kW)": 22,
   "Hardware brand": "Tesla",
   "Address": "6 Beach Rd, Batemans Bay NSW 2536, Australia",
   "Postcode": 2536
 },
 {
   "latitude": -29.4753381,
   "longitude": 149.8456657,
   "Charger type": "AC (level 2)",
   "Name": "Baths Motel",
   "State": "NSW",
   "stations": 1,
   "Plug types": "Tesla (Type 2)",
   "Charging Network": "Tesla Destination",
   "Power (kW)": 8,
   "Hardware brand": "Tesla",
   "Address": "339 Warialda St, Moree NSW 2400, Australia",
   "Postcode": 2400
 },
 {
   "latitude": -33.4259189,
   "longitude": 149.5817468,
   "Charger type": "DC (level 3)",
   "Name": "Bathurst Rail Museum",
   "State": "NSW",
   "stations": 1,
   "Plug types": "Both CHAdeMO & CCS Combo 2/SAE",
   "Charging Network": "Tesla Destination",
   "Power (kW)": 22,
   "Hardware brand": "",
   "Address": "126 Havannah St, Bathurst NSW 2795, Australia",
   "Postcode": 2795
 },
 {
   "latitude": -33.7632734,
   "longitude": 151.0042477,
   "Charger type": "DC (level 3)",
   "Name": "Baulkham Hills Sports Club",
   "State": "NSW",
   "stations": 1,
   "Plug types": "Tesla (Supercharger)",
   "Charging Network": "Tesla Destination",
   "Power (kW)": 2,
   "Hardware brand": "",
   "Address": "11 Renown Rd, Baulkham Hills NSW 2153, Australia",
   "Postcode": 2153
 },
 {
   "latitude": -28.2899513,
   "longitude": 153.5747799,
   "Charger type": "AC (level 2)",
   "Name": "Beach House on She-Oak",
   "State": "NSW",
   "stations": 1,
   "Plug types": "J-1772",
   "Charging Network": "Tesla Destination",
   "Power (kW)": 5,
   "Hardware brand": "Tesla",
   "Address": "18 She-Oak Ln, Casuarina NSW 2487, Australia",
   "Postcode": 2487
 },
 {
   "latitude": -28.6418194,
   "longitude": 153.6146694,
   "Charger type": "DC (level 3)",
   "Name": "Beach Suites Byron Bay",
   "State": "NSW",
   "stations": 2,
   "Plug types": "Both CHAdeMO & CCS Combo 2/SAE",
   "Charging Network": "Tesla Destination",
   "Power (kW)": 5,
   "Hardware brand": "Tesla",
   "Address": "20 Bay St, Byron Bay NSW 2481, Australia",
   "Postcode": 2481
 },
 {
   "latitude": -30.4449023,
   "longitude": 152.8845091,
   "Charger type": "AC (level 2)",
   "Name": "Bellingen Valley Lodge",
   "State": "NSW",
   "stations": 2,
   "Plug types": "J-1772",
   "Charging Network": "",
   "Power (kW)": 11,
   "Hardware brand": "",
   "Address": "1381 Waterfall Way, Bellingen NSW 2454, Australia",
   "Postcode": 2454
 },
 {
   "latitude": -33.5205618,
   "longitude": 151.3746149,
   "Charger type": "AC (level 2)",
   "Name": "Bells at Killcare Boutique Hotel",
   "State": "NSW",
   "stations": 1,
   "Plug types": "Tesla (Type 2)",
   "Charging Network": "Tesla Destination",
   "Power (kW)": 22,
   "Hardware brand": "Tesla",
   "Address": "107 The Scenic Rd, Killcare Heights NSW 2257, Australia",
   "Postcode": 2257
 },
 {
   "latitude": -34.4659347,
   "longitude": 150.3616268,
   "Charger type": "AC (level 2)",
   "Name": "Bendooley Estate",
   "State": "NSW",
   "stations": 2,
   "Plug types": "Tesla (Type 2)",
   "Charging Network": "Tesla Destination",
   "Power (kW)": 22,
   "Hardware brand": "Tesla",
   "Address": "Bendooley, 3020 Old Hume Hwy, Berrima NSW 2577, Australia",
   "Postcode": 2577
 },
 {
   "latitude": -35.2087147,
   "longitude": 150.5488103,
   "Charger type": "AC (level 2)",
   "Name": "Berrara Beach Holiday Chalets",
   "State": "NSW",
   "stations": 2,
   "Plug types": "Type 2",
   "Charging Network": "Tesla Destination",
   "Power (kW)": 22,
   "Hardware brand": "Tesla",
   "Address": "22 Berrara Rd, Berrara NSW 2540, Australia",
   "Postcode": 2540
 },
 {
   "latitude": -32.2550201,
   "longitude": 148.6102601,
   "Charger type": "AC (level 2)",
   "Name": "Best Western Bluegum Motel",
   "State": "NSW",
   "stations": 2,
   "Plug types": "Tesla (Type 2)",
   "Charging Network": "Tesla Destination",
   "Power (kW)": 14,
   "Hardware brand": "Tesla",
   "Address": "109 Cobra St, Dubbo NSW 2830, Australia",
   "Postcode": 2830
 },
 {
   "latitude": -32.9568871,
   "longitude": 151.7013414,
   "Charger type": "AC (level 2)",
   "Name": "Best Western PLUS Apollo International",
   "State": "NSW",
   "stations": 2,
   "Plug types": "Type 2",
   "Charging Network": "Tesla Destination",
   "Power (kW)": 4,
   "Hardware brand": "Tesla",
   "Address": "290 Pacific Hwy, Charlestown NSW 2290, Australia",
   "Postcode": 2290
 },
 {
   "latitude": -34.7471604,
   "longitude": 149.7294597,
   "Charger type": "AC (level 2)",
   "Name": "Best Western Plus Goulburn",
   "State": "NSW",
   "stations": 2,
   "Plug types": "J-1772",
   "Charging Network": "Tesla Destination",
   "Power (kW)": 22,
   "Hardware brand": "Tesla",
   "Address": "77 Lagoon St, Goulburn NSW 2580, Australia",
   "Postcode": 2580
 },
 {
   "latitude": -33.708221,
   "longitude": 150.3270623,
   "Charger type": "DC (level 3)",
   "Name": "Bethany Manor",
   "State": "NSW",
   "stations": 1,
   "Plug types": "Tesla (Supercharger)",
   "Charging Network": "Tesla Destination",
   "Power (kW)": 3,
   "Hardware brand": "Tesla",
   "Address": "8-12 Eastview Ave, Leura NSW 2780, Australia",
   "Postcode": 2780
 },
 {
   "latitude": -33.8555224,
   "longitude": 151.1621054,
   "Charger type": "AC (level 2)",
   "Name": "Birkenhead Point Outlet Centre",
   "State": "NSW",
   "stations": 3,
   "Plug types": "Tesla (Type 2)",
   "Charging Network": "Tesla Destination",
   "Power (kW)": 22,
   "Hardware brand": "",
   "Address": "19 Roseby St, Drummoyne NSW 2047, Australia",
   "Postcode": 2047
 },
 {
   "latitude": -33.7702867,
   "longitude": 150.9059341,
   "Charger type": "AC (level 2)",
   "Name": "Blacktown Westpoint Shopping Centre",
   "State": "NSW",
   "stations": 4,
   "Plug types": "Type 2",
   "Charging Network": "Tesla Destination",
   "Power (kW)": null,
   "Hardware brand": "",
   "Address": "17 Patrick St, Blacktown NSW 2148, Australia",
   "Postcode": 2148
 },
 {
   "latitude": -33.5050479,
   "longitude": 151.3372659,
   "Charger type": "AC (level 2)",
   "Name": "Blackwall Mountain Airbnb",
   "State": "NSW",
   "stations": 1,
   "Plug types": "Tesla (Type 2)",
   "Charging Network": "",
   "Power (kW)": null,
   "Hardware brand": "",
   "Address": "2 Koonora Ave, Blackwall NSW 2256, Australia",
   "Postcode": 2256
 },
 {
   "latitude": -32.5634047,
   "longitude": 149.6199933,
   "Charger type": "DC (level 3)",
   "Name": "Blue Wren Wines",
   "State": "NSW",
   "stations": 1,
   "Plug types": "Both CHAdeMO & CCS Combo 2/SAE",
   "Charging Network": "Tesla Destination",
   "Power (kW)": 22,
   "Hardware brand": "Tesla",
   "Address": "433 Ulan Rd, Eurunderee NSW 2850, Australia",
   "Postcode": 2850
 },
 {
   "latitude": -36.0867598,
   "longitude": 150.0495483,
   "Charger type": "AC (level 2)",
   "Name": "Bodalla Dairy Shed and Cheese Factory",
   "State": "NSW",
   "stations": 2,
   "Plug types": "Tesla (Type 2)",
   "Charging Network": "Tesla Destination",
   "Power (kW)": 4,
   "Hardware brand": "Tesla",
   "Address": "52 Princes Hwy, Bodalla NSW 2545, Australia",
   "Postcode": 2545
 },
 {
   "latitude": -33.3154277,
   "longitude": 149.0221838,
   "Charger type": "AC (level 2)",
   "Name": "Borrodell Vineyard Accommodation",
   "State": "NSW",
   "stations": 2,
   "Plug types": "Type 2",
   "Charging Network": "Tesla Destination",
   "Power (kW)": 22,
   "Hardware brand": "Tesla",
   "Address": "Borrodell, 298 Lake Canobolas Rd, Canobolas NSW 2800, Australia",
   "Postcode": 2800
 },
 {
   "latitude": -30.0894031,
   "longitude": 145.9424975,
   "Charger type": "AC (level 2)",
   "Name": "Bourke Riverside Motel",
   "State": "NSW",
   "stations": 2,
   "Plug types": "J-1772",
   "Charging Network": "Tesla Destination",
   "Power (kW)": 22,
   "Hardware brand": "Tesla",
   "Address": "Mitchell St, Bourke NSW 2840, Australia",
   "Postcode": 2840
 },
 {
   "latitude": -33.8827784,
   "longitude": 151.1948135,
   "Charger type": "DC (level 3)",
   "Name": "Broadway Shopping Centre",
   "State": "NSW",
   "stations": 3,
   "Plug types": "Tesla (Supercharger)",
   "Charging Network": "Tesla Destination",
   "Power (kW)": 22,
   "Hardware brand": "",
   "Address": "31 Bay St, Glebe NSW 2037, Australia",
   "Postcode": 2037
 },
 {
   "latitude": -32.7760644,
   "longitude": 151.2996067,
   "Charger type": "AC (level 2)",
   "Name": "Brokenwood Wines",
   "State": "NSW",
   "stations": 2,
   "Plug types": "Tesla (Type 2)",
   "Charging Network": "Tesla Destination",
   "Power (kW)": 22,
   "Hardware brand": "Tesla",
   "Address": "Brokenwood Wines, 401-427 McDonalds Rd, Pokolbin NSW 2320, Australia",
   "Postcode": 2320
 },
 {
   "latitude": -28.5398912,
   "longitude": 153.5521886,
   "Charger type": "AC (level 2)",
   "Name": "Brunswick River Inn",
   "State": "NSW",
   "stations": 1,
   "Plug types": "Tesla (Type 2)",
   "Charging Network": "Tesla Destination",
   "Power (kW)": 3,
   "Hardware brand": "Tesla",
   "Address": "2 The Terrace, Brunswick Heads NSW 2483, Australia",
   "Postcode": 2483
 },
 {
   "latitude": -28.67874,
   "longitude": 153.610284,
   "Charger type": "AC (level 2)",
   "Name": "Byron at Byron Resort and Spa",
   "State": "NSW",
   "stations": 2,
   "Plug types": "Tesla (Type 2)",
   "Charging Network": "Tesla Destination",
   "Power (kW)": 22,
   "Hardware brand": "Tesla",
   "Address": "77 Broken Head Rd, Suffolk Park NSW 2481, Australia",
   "Postcode": 2481
 },
 {
   "latitude": -28.6389004,
   "longitude": 153.6037346,
   "Charger type": "AC (level 2)",
   "Name": "Byron Cove Beach House",
   "State": "NSW",
   "stations": 2,
   "Plug types": "Tesla (Type 2)",
   "Charging Network": "Tesla Destination",
   "Power (kW)": 3,
   "Hardware brand": "Tesla",
   "Address": "10 Kendall St, Byron Bay NSW 2481, Australia",
   "Postcode": 2481
 },
 {
   "latitude": -28.6395098,
   "longitude": 153.6043671,
   "Charger type": "AC (level 2)",
   "Name": "Byron Stay",
   "State": "NSW",
   "stations": 1,
   "Plug types": "Tesla (Type 2)",
   "Charging Network": "",
   "Power (kW)": null,
   "Hardware brand": "Tesla",
   "Address": "67 Shirley St, Byron Bay NSW 2481, Australia",
   "Postcode": 2481
 },
 {
   "latitude": -32.5423289,
   "longitude": 151.5011005,
   "Charger type": "AC (level 2)",
   "Name": "Cabins in the Clouds",
   "State": "NSW",
   "stations": 2,
   "Plug types": "Tesla (Type 2)",
   "Charging Network": "Tesla Destination",
   "Power (kW)": 22,
   "Hardware brand": "Tesla",
   "Address": "424 Moonabung Rd, Vacy NSW 2421, Australia",
   "Postcode": 2421
 },
 {
   "latitude": -33.8966772,
   "longitude": 150.9379107,
   "Charger type": "AC (level 2)",
   "Name": "Cabramatta Hotel",
   "State": "NSW",
   "stations": 2,
   "Plug types": "J-1772",
   "Charging Network": "Tesla Destination",
   "Power (kW)": 4,
   "Hardware brand": "",
   "Address": "224 Railway Pde, Cabramatta NSW 2166, Australia",
   "Postcode": 2166
 },
 {
   "latitude": -34.0424537,
   "longitude": 151.0489528,
   "Charger type": "DC (level 3)",
   "Name": "Cafe Loftus",
   "State": "NSW",
   "stations": 1,
   "Plug types": "Tesla (Supercharger)",
   "Charging Network": "",
   "Power (kW)": null,
   "Hardware brand": "",
   "Address": "71 National Ave, Loftus NSW 2232, Australia",
   "Postcode": 2232
 },
 {
   "latitude": -36.419857,
   "longitude": 150.063318,
   "Charger type": "AC (level 2)",
   "Name": "Captain\\u2019s Quarters Townhouses Bermagui",
   "State": "NSW",
   "stations": 2,
   "Plug types": "Type 2",
   "Charging Network": "Tesla Destination",
   "Power (kW)": 7,
   "Hardware brand": "",
   "Address": "The Captains Quarters, 6 George St, Bermagui NSW 2546, Australia",
   "Postcode": 2546
 },
 {
   "latitude": -28.8624736,
   "longitude": 153.0493516,
   "Charger type": "AC (level 2)",
   "Name": "Casino RSM",
   "State": "NSW",
   "stations": 1,
   "Plug types": "Tesla (Type 2)",
   "Charging Network": "Tesla Destination",
   "Power (kW)": 5,
   "Hardware brand": "",
   "Address": "162 Canterbury St, Casino NSW 2470, Australia",
   "Postcode": 2470
 },
 {
   "latitude": -33.7296502,
   "longitude": 151.0068965,
   "Charger type": "AC (level 2)",
   "Name": "Castle Towers Shopping Centre",
   "State": "NSW",
   "stations": 3,
   "Plug types": "Type 2",
   "Charging Network": "Tesla Destination",
   "Power (kW)": 22,
   "Hardware brand": "Tesla",
   "Address": "6/14 Castle St, Castle Hill NSW 2154, Australia",
   "Postcode": 2154
 },
 {
   "latitude": -33.3677873,
   "longitude": 151.4753987,
   "Charger type": "AC (level 2)",
   "Name": "Central Jetty Motel",
   "State": "NSW",
   "stations": 2,
   "Plug types": "Tesla (Type 2)",
   "Charging Network": "Tesla Destination",
   "Power (kW)": 22,
   "Hardware brand": "",
   "Address": "509-517 The Entrance Rd, Long Jetty NSW 2261, Australia",
   "Postcode": 2261
 },
 {
   "latitude": -33.7209507,
   "longitude": 151.043454,
   "Charger type": "DC (level 3)",
   "Name": "Cherrybrook Village",
   "State": "NSW",
   "stations": 2,
   "Plug types": "Both CHAdeMO & CCS Combo 2/SAE",
   "Charging Network": "Tesla Destination",
   "Power (kW)": 22,
   "Hardware brand": "",
   "Address": "Shop 42/47 Shepherds Dr, Cherrybrook NSW 2126, Australia",
   "Postcode": 2126
 },
 {
   "latitude": -34.0946142,
   "longitude": 142.0388599,
   "Charger type": "AC (level 2)",
   "Name": "Coomealla Motel",
   "State": "NSW",
   "stations": 1,
   "Plug types": "Tesla (Type 2)",
   "Charging Network": "",
   "Power (kW)": null,
   "Hardware brand": "",
   "Address": "1 Matong St, Dareton NSW 2717, Australia",
   "Postcode": 2717
 },
 {
   "latitude": -33.3836595,
   "longitude": 148.0098383,
   "Charger type": "AC (level 2)",
   "Name": "Country Mile Motor Inn",
   "State": "NSW",
   "stations": 2,
   "Plug types": "J-1772",
   "Charging Network": "Tesla Destination",
   "Power (kW)": 22,
   "Hardware brand": "Tesla",
   "Address": "Country Mile Motor Inn, 14 Cross St, Forbes NSW 2871, Australia",
   "Postcode": 2871
 },
 {
   "latitude": -33.9224589,
   "longitude": 151.2558206,
   "Charger type": "AC (level 2)",
   "Name": "Crowne Plaza Coogee",
   "State": "NSW",
   "stations": 2,
   "Plug types": "Type 2",
   "Charging Network": "Tesla Destination",
   "Power (kW)": 22,
   "Hardware brand": "",
   "Address": "242 Arden St, Coogee NSW 2034, Australia",
   "Postcode": 2034
 },
 {
   "latitude": -33.8739184,
   "longitude": 151.2040542,
   "Charger type": "AC (level 2)",
   "Name": "Crowne Plaza Darling Harbour",
   "State": "NSW",
   "stations": 3,
   "Plug types": "Type 2",
   "Charging Network": "Tesla Destination",
   "Power (kW)": 22,
   "Hardware brand": "",
   "Address": "58 Bathurst St, Sydney NSW 2000, Australia",
   "Postcode": 2000
 },
 {
   "latitude": -33.6094184,
   "longitude": 150.8073593,
   "Charger type": "AC (level 2)",
   "Name": "Crowne Plaza Hawkesbury Valley",
   "State": "NSW",
   "stations": 2,
   "Plug types": "Tesla (Type 2)",
   "Charging Network": "Tesla Destination",
   "Power (kW)": 6,
   "Hardware brand": "Tesla",
   "Address": "61 Hawkesbury Valley Way, Windsor NSW 2756, Australia",
   "Postcode": 2756
 },
 {
   "latitude": -32.7811478,
   "longitude": 151.3487977,
   "Charger type": "AC (level 2)",
   "Name": "Crowne Plaza Hunter Valley",
   "State": "NSW",
   "stations": 1,
   "Plug types": "J-1772",
   "Charging Network": "",
   "Power (kW)": null,
   "Hardware brand": "",
   "Address": "430 Wine Country Dr, Lovedale NSW 2325, Australia",
   "Postcode": 2325
 },
 {
   "latitude": -33.448629,
   "longitude": 151.4452447,
   "Charger type": "DC (level 3)",
   "Name": "Crowne Plaza Terrigal",
   "State": "NSW",
   "stations": 3,
   "Plug types": "Both CHAdeMO & CCS Combo 2/SAE",
   "Charging Network": "",
   "Power (kW)": null,
   "Hardware brand": "Tesla",
   "Address": "Pine Tree Ln, Terrigal NSW 2260, Australia",
   "Postcode": 2260
 },
 {
   "latitude": -32.7857778,
   "longitude": 151.2851456,
   "Charger type": "AC (level 2)",
   "Name": "Cypress Lakes Resort, Golf and Country Club",
   "State": "NSW",
   "stations": 2,
   "Plug types": "Tesla (Type 2)",
   "Charging Network": "Tesla Destination",
   "Power (kW)": 7,
   "Hardware brand": "",
   "Address": "Vintage Ave, Pokolbin NSW 2320, Australia",
   "Postcode": 2320
 },
 {
   "latitude": -36.9418372,
   "longitude": 149.9066231,
   "Charger type": "AC (level 2)",
   "Name": "Discovery Parks Pambula Beach",
   "State": "NSW",
   "stations": 1,
   "Plug types": "Type 2",
   "Charging Network": "Tesla Destination",
   "Power (kW)": 22,
   "Hardware brand": "",
   "Address": "1 Pambula Beach Rd, Pambula Beach NSW 2549, Australia",
   "Postcode": 2549
 },
 {
   "latitude": -29.235626,
   "longitude": 152.0129861,
   "Charger type": "AC (level 2)",
   "Name": "Donegal Farmstay",
   "State": "NSW",
   "stations": 2,
   "Plug types": "Tesla (Type 2)",
   "Charging Network": "Tesla Destination",
   "Power (kW)": 22,
   "Hardware brand": "",
   "Address": "103 Sandy Flat Rd, Sandy Flat NSW 2372, Australia",
   "Postcode": 2372
 },
 {
   "latitude": -33.272863,
   "longitude": 149.0163655,
   "Charger type": "AC (level 2)",
   "Name": "Dragonfly Cottages",
   "State": "NSW",
   "stations": 1,
   "Plug types": "Tesla (Type 2)",
   "Charging Network": "Tesla Destination",
   "Power (kW)": 22,
   "Hardware brand": "",
   "Address": "92 Heifer Station Ln, Borenore NSW 2800, Australia",
   "Postcode": 2800
 },
 {
   "latitude": -33.8356839,
   "longitude": 148.6803744,
   "Charger type": "AC (level 2)",
   "Name": "Driver Reviver Car Park",
   "State": "NSW",
   "stations": 2,
   "Plug types": "Tesla (Type 2)",
   "Charging Network": "Tesla Destination",
   "Power (kW)": 22,
   "Hardware brand": "Tesla",
   "Address": "2 Lachlan Valley Way, Cowra NSW 2794, Australia",
   "Postcode": 2794
 },
 {
   "latitude": -33.9052704,
   "longitude": 151.2130888,
   "Charger type": "AC (level 2)",
   "Name": "East Village Shopping Centre",
   "State": "NSW",
   "stations": 3,
   "Plug types": "Tesla (Type 2)",
   "Charging Network": "Tesla Destination",
   "Power (kW)": 22,
   "Hardware brand": "Tritium",
   "Address": "4 Defries Ave, Zetland NSW 2017, Australia",
   "Postcode": 2017
 },
 {
   "latitude": -29.4707544,
   "longitude": 149.8468883,
   "Charger type": "AC (level 2)",
   "Name": "Econo Lodge Moree Spa Motor Inn",
   "State": "NSW",
   "stations": 2,
   "Plug types": "Type 2",
   "Charging Network": "Tesla Destination",
   "Power (kW)": 5,
   "Hardware brand": "",
   "Address": "21 Alice St, Moree NSW 2400, Australia",
   "Postcode": 2400
 },
 {
   "latitude": -33.780526,
   "longitude": 151.1340844,
   "Charger type": "DC (level 3)",
   "Name": "Eden Gardens",
   "State": "NSW",
   "stations": 2,
   "Plug types": "Both CHAdeMO & CCS Combo 2/SAE",
   "Charging Network": "Tesla Destination",
   "Power (kW)": 3,
   "Hardware brand": "Tesla",
   "Address": "307 Lane Cove Rd, Macquarie Park NSW 2113, Australia",
   "Postcode": 2113
 },
 {
   "latitude": -35.3326444,
   "longitude": 148.3176869,
   "Charger type": "AC (level 2)",
   "Name": "Elm Cottage Tumut",
   "State": "NSW",
   "stations": 2,
   "Plug types": "Tesla (Type 2)",
   "Charging Network": "Tesla Destination",
   "Power (kW)": 22,
   "Hardware brand": "Tesla",
   "Address": "722 Little River Rd, Little River NSW 2720, Australia",
   "Postcode": 2720
 },
 {
   "latitude": -31.9601917,
   "longitude": 141.4453934,
   "Charger type": "AC (level 2)",
   "Name": "Emaroo Cottages",
   "State": "NSW",
   "stations": 1,
   "Plug types": "Type 2",
   "Charging Network": "",
   "Power (kW)": null,
   "Hardware brand": "",
   "Address": "18 Tramway Terrace, Broken Hill NSW 2880, Australia",
   "Postcode": 2880
 },
 {
   "latitude": -33.2278234,
   "longitude": 150.2080922,
   "Charger type": "DC (level 3)",
   "Name": "Emirates One & Only Wolgan Valley",
   "State": "NSW",
   "stations": 2,
   "Plug types": "Both CHAdeMO & CCS Combo 2/SAE",
   "Charging Network": "Tesla Destination",
   "Power (kW)": 6,
   "Hardware brand": "",
   "Address": "2600 Wolgan Rd, Wolgan Valley NSW 2790, Australia",
   "Postcode": 2790
 },
 {
   "latitude": -33.4393717,
   "longitude": 151.3911387,
   "Charger type": "AC (level 2)",
   "Name": "Erina Fair",
   "State": "NSW",
   "stations": 2,
   "Plug types": "Tesla (Type 2)",
   "Charging Network": "",
   "Power (kW)": null,
   "Hardware brand": "Tesla",
   "Address": "74 Karalta Rd, Erina NSW 2250, Australia",
   "Postcode": 2250
 },
 {
   "latitude": -29.694289,
   "longitude": 152.9382181,
   "Charger type": "AC (level 2)",
   "Name": "Fitzroy Motel Inn",
   "State": "NSW",
   "stations": 2,
   "Plug types": "Type 2",
   "Charging Network": "Tesla Destination",
   "Power (kW)": 22,
   "Hardware brand": "Tesla",
   "Address": "27 Fitzroy St, Grafton NSW 2460, Australia",
   "Postcode": 2460
 },
 {
   "latitude": -29.7381427,
   "longitude": 151.7376761,
   "Charger type": "AC (level 2)",
   "Name": "Glen Innes Visitor Information Centre",
   "State": "NSW",
   "stations": 2,
   "Plug types": "Type 2",
   "Charging Network": "Tesla Destination",
   "Power (kW)": 22,
   "Hardware brand": "Tesla",
   "Address": "152 Church St, Glen Innes NSW 2370, Australia",
   "Postcode": 2370
 },
 {
   "latitude": -33.8501441,
   "longitude": 151.2182433,
   "Charger type": "AC (level 2)",
   "Name": "Glenferrie Lodge Kirribilli",
   "State": "NSW",
   "stations": 2,
   "Plug types": "Tesla (Type 2)",
   "Charging Network": "Tesla Destination",
   "Power (kW)": 22,
   "Hardware brand": "Tesla",
   "Address": "12A Carabella St, Kirribilli NSW 2061, Australia",
   "Postcode": 2061
 },
 {
   "latitude": -32.7461755,
   "longitude": 151.0732014,
   "Charger type": "AC (level 2)",
   "Name": "Glenguin Estate & Vineyard",
   "State": "NSW",
   "stations": 2,
   "Plug types": "Type 2",
   "Charging Network": "Tesla Destination",
   "Power (kW)": 22,
   "Hardware brand": "Tesla",
   "Address": "997 Milbrodale Rd, Broke NSW 2330, Australia",
   "Postcode": 2330
 },
 {
   "latitude": -29.000386,
   "longitude": 152.023975,
   "Charger type": "AC (level 2)",
   "Name": "Glenrock Gardens",
   "State": "NSW",
   "stations": 2,
   "Plug types": "Tesla (Type 2)",
   "Charging Network": "Tesla Destination",
   "Power (kW)": 6,
   "Hardware brand": "Tesla",
   "Address": "84 Robinsons Ln, Tenterfield NSW 2372, Australia",
   "Postcode": 2372
 },
 {
   "latitude": -33.3926197,
   "longitude": 151.3535782,
   "Charger type": "AC (level 2)",
   "Name": "Gosford Inn Motel",
   "State": "NSW",
   "stations": 2,
   "Plug types": "J-1772",
   "Charging Network": "Tesla Destination",
   "Power (kW)": 22,
   "Hardware brand": "Tesla",
   "Address": "733 Pacific Hwy, Narara NSW 2250, Australia",
   "Postcode": 2250
 },
 {
   "latitude": -32.9903224,
   "longitude": 151.1305038,
   "Charger type": "DC (level 3)",
   "Name": "Great Northern Trading Post",
   "State": "NSW",
   "stations": 1,
   "Plug types": "Tesla (Supercharger)",
   "Charging Network": "",
   "Power (kW)": null,
   "Hardware brand": "",
   "Address": "Old Northern Trading Post, 3718 Great N Rd, Laguna NSW 2325, Australia",
   "Postcode": 2325
 },
 {
   "latitude": -33.8406884,
   "longitude": 151.2075778,
   "Charger type": "AC (level 2)",
   "Name": "Greenwood Plaza",
   "State": "NSW",
   "stations": 3,
   "Plug types": "Tesla (Type 2)",
   "Charging Network": "Tesla Destination",
   "Power (kW)": 22,
   "Hardware brand": "Tesla",
   "Address": "36 Blue St, North Sydney NSW 2060, Australia",
   "Postcode": 2060
 },
 {
   "latitude": -34.2891433,
   "longitude": 146.050738,
   "Charger type": "AC (level 2)",
   "Name": "Griffith Visitor Information Centre",
   "State": "NSW",
   "stations": 2,
   "Plug types": "Tesla (Type 2)",
   "Charging Network": "Tesla Destination",
   "Power (kW)": 22,
   "Hardware brand": "",
   "Address": "1 Jondaryan Ave, Griffith NSW 2680, Australia",
   "Postcode": 2680
 },
 {
   "latitude": -28.4033923,
   "longitude": 153.3489445,
   "Charger type": "AC (level 2)",
   "Name": "Gymea Eco Retreat & Spa",
   "State": "NSW",
   "stations": 2,
   "Plug types": "Tesla (Type 2)",
   "Charging Network": "Tesla Destination",
   "Power (kW)": 22,
   "Hardware brand": "Tesla",
   "Address": "128 Bonnydoon Rd, Smiths Creek NSW 2484, Australia",
   "Postcode": 2484
 },
 {
   "latitude": -31.0904667,
   "longitude": 150.9273942,
   "Charger type": "AC (level 2)",
   "Name": "Hands of Fame Park",
   "State": "NSW",
   "stations": 2,
   "Plug types": "Tesla (Type 2)",
   "Charging Network": "Tesla Destination",
   "Power (kW)": 22,
   "Hardware brand": "",
   "Address": "2 Kable Ave, Tamworth NSW 2340, Australia",
   "Postcode": 2340
 },
 {
   "latitude": -33.7792946,
   "longitude": 151.292454,
   "Charger type": "AC (level 2)",
   "Name": "Harbord Diggers",
   "State": "NSW",
   "stations": 4,
   "Plug types": "Type 2",
   "Charging Network": "Tesla Destination",
   "Power (kW)": 22,
   "Hardware brand": "Tesla",
   "Address": "88 Evans St, Freshwater NSW 2096, Australia",
   "Postcode": 2096
 },
 {
   "latitude": -33.2592048,
   "longitude": 149.0038317,
   "Charger type": "AC (level 2)",
   "Name": "Heifer Station Wines",
   "State": "NSW",
   "stations": 2,
   "Plug types": "Type 2",
   "Charging Network": "Tesla Destination",
   "Power (kW)": 22,
   "Hardware brand": "Tesla",
   "Address": "1034 The Escort Way, Borenore NSW 2800, Australia",
   "Postcode": 2800
 },
 {
   "latitude": -36.4105901,
   "longitude": 148.7199593,
   "Charger type": "AC (level 2)",
   "Name": "Highfields Chalet",
   "State": "NSW",
   "stations": 1,
   "Plug types": "Type 2",
   "Charging Network": "",
   "Power (kW)": null,
   "Hardware brand": "",
   "Address": "Avonside NSW 2628, Australia",
   "Postcode": 2628
 },
 {
   "latitude": -33.3111454,
   "longitude": 149.1433758,
   "Charger type": "AC (level 2)",
   "Name": "Highland Heritage Estate",
   "State": "NSW",
   "stations": 2,
   "Plug types": "Type 2",
   "Charging Network": "Tesla Destination",
   "Power (kW)": 17,
   "Hardware brand": "Tesla",
   "Address": "Highland Heritage Estate, 4968 Mitchell Hwy, Orange NSW 2800, Australia",
   "Postcode": 2800
 },
 {
   "latitude": -33.6886646,
   "longitude": 151.2236545,
   "Charger type": "AC (level 2)",
   "Name": "Hills Flower Market",
   "State": "NSW",
   "stations": 2,
   "Plug types": "Tesla (Type 2)",
   "Charging Network": "Tesla Destination",
   "Power (kW)": 22,
   "Hardware brand": "Tesla",
   "Address": "287 Mona Vale Rd, Terrey Hills NSW 2084, Australia",
   "Postcode": 2084
 },
 {
   "latitude": -35.1964853,
   "longitude": 147.8178208,
   "Charger type": "DC (level 3)",
   "Name": "Hillview Farmstay",
   "State": "NSW",
   "stations": 2,
   "Plug types": "Both CHAdeMO & CCS Combo 2/SAE",
   "Charging Network": "Tesla Destination",
   "Power (kW)": 22,
   "Hardware brand": "Tesla",
   "Address": "3241 Hume Hwy, Mount Adrah NSW 2729, Australia",
   "Postcode": 2729
 },
 {
   "latitude": -33.8720109,
   "longitude": 151.207892,
   "Charger type": "DC (level 3)",
   "Name": "Hilton Sydney",
   "State": "NSW",
   "stations": 4,
   "Plug types": "Both CHAdeMO & CCS Combo 2/SAE",
   "Charging Network": "Tesla Destination",
   "Power (kW)": 22,
   "Hardware brand": "",
   "Address": "259 Pitt St, Sydney NSW 2000, Australia",
   "Postcode": 2000
 },
 {
   "latitude": -35.9841874,
   "longitude": 146.6432731,
   "Charger type": "AC (level 2)",
   "Name": "Howlong Golf Resort",
   "State": "NSW",
   "stations": 2,
   "Plug types": "Type 2",
   "Charging Network": "Tesla Destination",
   "Power (kW)": 22,
   "Hardware brand": "Tesla",
   "Address": "186 Golf Club Dr, Howlong NSW 2643, Australia",
   "Postcode": 2643
 },
 {
   "latitude": -32.8251403,
   "longitude": 151.3264179,
   "Charger type": "DC (level 3)",
   "Name": "Hunter Valley Cooperage B",
   "State": "NSW",
   "stations": 2,
   "Plug types": "Both CHAdeMO & CCS Combo 2/SAE",
   "Charging Network": "Tesla Destination",
   "Power (kW)": 17,
   "Hardware brand": "",
   "Address": "41 Oakey Creek Rd, Cessnock NSW 2325, Australia",
   "Postcode": 2325
 },
 {
   "latitude": -32.7290635,
   "longitude": 151.2591116,
   "Charger type": "DC (level 3)",
   "Name": "Hunter Valley Resort",
   "State": "NSW",
   "stations": 2,
   "Plug types": "Both CHAdeMO & CCS Combo 2/SAE",
   "Charging Network": "Tesla Destination",
   "Power (kW)": 17,
   "Hardware brand": "Tesla",
   "Address": "Hermitage Rd & Mistletoe Ln, Pokolbin NSW 2320, Australia",
   "Postcode": 2320
 },
 {
   "latitude": -33.3524924,
   "longitude": 151.4889255,
   "Charger type": "AC (level 2)",
   "Name": "IBIS Styles The Entrance",
   "State": "NSW",
   "stations": 1,
   "Plug types": "Tesla (Type 2)",
   "Charging Network": "",
   "Power (kW)": null,
   "Hardware brand": "Tesla",
   "Address": "315 Central Coast Hwy, Long Jetty NSW 2261, Australia",
   "Postcode": 2261
 },
 {
   "latitude": -33.8628857,
   "longitude": 151.2123616,
   "Charger type": "AC (level 2)",
   "Name": "Intercontinental Hotel",
   "State": "NSW",
   "stations": 2,
   "Plug types": "Type 2",
   "Charging Network": "Tesla Destination",
   "Power (kW)": 22,
   "Hardware brand": "",
   "Address": "117 Macquarie St, Sydney NSW 2000, Australia",
   "Postcode": 2000
 },
 {
   "latitude": -33.8764552,
   "longitude": 151.2430418,
   "Charger type": "AC (level 2)",
   "Name": "Intercontinental Sydney Double Bay",
   "State": "NSW",
   "stations": 1,
   "Plug types": "Tesla (Type 2)",
   "Charging Network": "",
   "Power (kW)": null,
   "Hardware brand": "",
   "Address": "20/26 Cross St, Double Bay NSW 2028, Australia",
   "Postcode": 2028
 },
 {
   "latitude": -33.8207078,
   "longitude": 150.0214396,
   "Charger type": "AC (level 2)",
   "Name": "Jenolan Caves House",
   "State": "NSW",
   "stations": 2,
   "Plug types": "Tesla (Type 2)",
   "Charging Network": "Tesla Destination",
   "Power (kW)": 4,
   "Hardware brand": "",
   "Address": "4654 Jenolan Caves Rd, Jenolan NSW 2790, Australia",
   "Postcode": 2790
 },
 {
   "latitude": -34.4235692,
   "longitude": 150.2149038,
   "Charger type": "DC (level 3)",
   "Name": "Joadja Distillery",
   "State": "NSW",
   "stations": 1,
   "Plug types": "Tesla (Supercharger)",
   "Charging Network": "",
   "Power (kW)": null,
   "Hardware brand": "",
   "Address": "1714 Joadja Rd, Joadja NSW 2575, Australia",
   "Postcode": 2575
 },
 {
   "latitude": -34.4235692,
   "longitude": 150.2149038,
   "Charger type": "AC (level 2)",
   "Name": "Joadja Historic Site & Distillery",
   "State": "NSW",
   "stations": 1,
   "Plug types": "J-1772",
   "Charging Network": "Tesla Destination",
   "Power (kW)": 22,
   "Hardware brand": "",
   "Address": "1760 Joadja Rd, Joadja NSW 2575, Australia",
   "Postcode": 2575
 },
 {
   "latitude": -32.8602711,
   "longitude": 149.9734874,
   "Charger type": "DC (level 3)",
   "Name": "Kandos Museum",
   "State": "NSW",
   "stations": 1,
   "Plug types": "Tesla (Supercharger)",
   "Charging Network": "Tesla Destination",
   "Power (kW)": 22,
   "Hardware brand": "Tesla",
   "Address": "22 Buchanan St, Kandos NSW 2848, Australia",
   "Postcode": 2848
 },
 {
   "latitude": -31.6345965,
   "longitude": 152.7237084,
   "Charger type": "AC (level 2)",
   "Name": "Kew Motel",
   "State": "NSW",
   "stations": 2,
   "Plug types": "Type 2",
   "Charging Network": "Tesla Destination",
   "Power (kW)": 4,
   "Hardware brand": "",
   "Address": "Kew Court Motel, 144 Nancy Bird Walton Dr, Kew NSW 2439, Australia",
   "Postcode": 2439
 },
 {
   "latitude": -33.3608295,
   "longitude": 151.4989637,
   "Charger type": "AC (level 2)",
   "Name": "Kim's Beachside Retreat",
   "State": "NSW",
   "stations": 2,
   "Plug types": "Tesla (Type 2)",
   "Charging Network": "Tesla Destination",
   "Power (kW)": 4,
   "Hardware brand": "Tesla",
   "Address": "16 Charlton St, Toowoon Bay NSW 2261, Australia",
   "Postcode": 2261
 },
 {
   "latitude": -32.8086229,
   "longitude": 151.3054373,
   "Charger type": "AC (level 2)",
   "Name": "Kirkton Park Hunter Valley",
   "State": "NSW",
   "stations": 2,
   "Plug types": "Tesla (Type 2)",
   "Charging Network": "Tesla Destination",
   "Power (kW)": 6,
   "Hardware brand": "Tesla",
   "Address": "336 Oakey Creek Rd, Pokolbin NSW 2320, Australia",
   "Postcode": 2320
 },
 {
   "latitude": -31.4347033,
   "longitude": 152.8981371,
   "Charger type": "AC (level 2)",
   "Name": "Koala Tree Motel",
   "State": "NSW",
   "stations": 2,
   "Plug types": "Type 2",
   "Charging Network": "Tesla Destination",
   "Power (kW)": 22,
   "Hardware brand": "Tesla",
   "Address": "Koala Tree Motel, 179 Gordon St, Port Macquarie NSW 2444, Australia",
   "Postcode": 2444
 },
 {
   "latitude": -33.9624658,
   "longitude": 151.1326345,
   "Charger type": "AC (level 2)",
   "Name": "Kogarah Town Centre",
   "State": "NSW",
   "stations": 2,
   "Plug types": "Tesla (Type 2)",
   "Charging Network": "Tesla Destination",
   "Power (kW)": 6,
   "Hardware brand": "Tesla",
   "Address": "1/9 Railway Parade, Kogarah NSW 2217, Australia",
   "Postcode": 2217
 },
 {
   "latitude": -36.452248,
   "longitude": 148.4673822,
   "Charger type": "AC (level 2)",
   "Name": "Lake Crackenback Resort",
   "State": "NSW",
   "stations": 2,
   "Plug types": "Type 2",
   "Charging Network": "Tesla Destination",
   "Power (kW)": 22,
   "Hardware brand": "Tesla",
   "Address": "1454 Alpine Way, Crackenback NSW 2627, Australia",
   "Postcode": 2627
 },
 {
   "latitude": -34.984996,
   "longitude": 149.383795,
   "Charger type": "AC (level 2)",
   "Name": "Lake George Winery",
   "State": "NSW",
   "stations": 1,
   "Plug types": "Type 2",
   "Charging Network": "",
   "Power (kW)": null,
   "Hardware brand": "",
   "Address": "Federal Hwy, Lake George NSW 2581, Australia",
   "Postcode": 2581
 },
 {
   "latitude": -28.8129865,
   "longitude": 153.275264,
   "Charger type": "AC (level 2)",
   "Name": "Lismore Bounty Motel",
   "State": "NSW",
   "stations": 2,
   "Plug types": "Type 2",
   "Charging Network": "Tesla Destination",
   "Power (kW)": 11,
   "Hardware brand": "Tesla",
   "Address": "Bounty Motel, 241 Keen St, Lismore NSW 2480, Australia",
   "Postcode": 2480
 },
 {
   "latitude": -33.7219754,
   "longitude": 150.3716578,
   "Charger type": "AC (level 2)",
   "Name": "Luxury Blue Mountains Accommodation",
   "State": "NSW",
   "stations": 2,
   "Plug types": "Tesla (Type 2)",
   "Charging Network": "Tesla Destination",
   "Power (kW)": 5,
   "Hardware brand": "",
   "Address": "6 The Avenue, Wentworth Falls NSW 2782, Australia",
   "Postcode": 2782
 },
 {
   "latitude": -34.0748763,
   "longitude": 150.7976685,
   "Charger type": "AC (level 2)",
   "Name": "Macarthur Square Shopping Centre",
   "State": "NSW",
   "stations": 2,
   "Plug types": "Tesla (Type 2)",
   "Charging Network": "Tesla Destination",
   "Power (kW)": 22,
   "Hardware brand": "Tesla",
   "Address": "200 Gilchrist Dr, Campbelltown NSW 2560, Australia",
   "Postcode": 2560
 },
 {
   "latitude": -30.9797594,
   "longitude": 150.2577127,
   "Charger type": "AC (level 2)",
   "Name": "Mackellar Motel",
   "State": "NSW",
   "stations": 2,
   "Plug types": "Type 2",
   "Charging Network": "Tesla Destination",
   "Power (kW)": 17,
   "Hardware brand": "Tesla",
   "Address": "342 Conadilly St, Gunnedah NSW 2380, Australia",
   "Postcode": 2380
 },
 {
   "latitude": -30.708589,
   "longitude": 152.9187168,
   "Charger type": "AC (level 2)",
   "Name": "Mandarin Motel",
   "State": "NSW",
   "stations": 1,
   "Plug types": "J-1772",
   "Charging Network": "Tesla Destination",
   "Power (kW)": 22,
   "Hardware brand": "Tesla",
   "Address": "24 Princess St, Macksville NSW 2447, Australia",
   "Postcode": 2447
 },
 {
   "latitude": -33.8245423,
   "longitude": 151.0789793,
   "Charger type": "AC (level 2)",
   "Name": "Marina Square Shopping Centre Wentworth Point",
   "State": "NSW",
   "stations": 1,
   "Plug types": "Type 2",
   "Charging Network": "Tesla Destination",
   "Power (kW)": 22,
   "Hardware brand": "",
   "Address": "5 Footbridge Bvd, Sydney Olympic Park NSW 2127, Australia",
   "Postcode": 2127
 },
 {
   "latitude": -28.3271389,
   "longitude": 153.3948305,
   "Charger type": "AC (level 2)",
   "Name": "M-Arts Precinct Murwillumbah",
   "State": "NSW",
   "stations": 2,
   "Plug types": "Type 2",
   "Charging Network": "Tesla Destination",
   "Power (kW)": 22,
   "Hardware brand": "",
   "Address": "105 Wollumbin St, Murwillumbah NSW 2484, Australia",
   "Postcode": 2484
 },
 {
   "latitude": -28.6365833,
   "longitude": 153.580196,
   "Charger type": "AC (level 2)",
   "Name": "McTavish Surf",
   "State": "NSW",
   "stations": 1,
   "Plug types": "Tesla (Type 2)",
   "Charging Network": "Tesla Destination",
   "Power (kW)": 22,
   "Hardware brand": "",
   "Address": "91 Centennial Cct, Byron Bay NSW 2481, Australia",
   "Postcode": 2481
 },
 {
   "latitude": -36.1111595,
   "longitude": 144.7539036,
   "Charger type": "AC (level 2)",
   "Name": "Meninya Palms Moama",
   "State": "NSW",
   "stations": 2,
   "Plug types": "Type 2",
   "Charging Network": "Tesla Destination",
   "Power (kW)": 22,
   "Hardware brand": "Tesla",
   "Address": "54-56 Meninya St, Moama NSW 2731, Australia",
   "Postcode": 2731
 },
 {
   "latitude": -34.4989528,
   "longitude": 150.4815589,
   "Charger type": "AC (level 2)",
   "Name": "Milton Park Country House",
   "State": "NSW",
   "stations": 1,
   "Plug types": "Tesla (Type 2)",
   "Charging Network": "Tesla Destination",
   "Power (kW)": 8,
   "Hardware brand": "Tesla",
   "Address": "200 Horderns Rd, Bowral NSW 2576, Australia",
   "Postcode": 2576
 },
 {
   "latitude": -34.3398882,
   "longitude": 146.0589659,
   "Charger type": "DC (level 3)",
   "Name": "Mino + Co Wines Cellar Door",
   "State": "NSW",
   "stations": 2,
   "Plug types": "Both CHAdeMO & CCS Combo 2/SAE",
   "Charging Network": "Tesla Destination",
   "Power (kW)": 22,
   "Hardware brand": "",
   "Address": "113 Hanwood Ave, Hanwood NSW 2680, Australia",
   "Postcode": 2680
 },
 {
   "latitude": -33.8961195,
   "longitude": 151.1951555,
   "Charger type": "AC (level 2)",
   "Name": "Mirvac South Eveleigh",
   "State": "NSW",
   "stations": 1,
   "Plug types": "Tesla (Type 2)",
   "Charging Network": "Tesla Destination",
   "Power (kW)": 22,
   "Hardware brand": "",
   "Address": "2 Central Ave, Eveleigh NSW 2015, Australia",
   "Postcode": 2015
 },
 {
   "latitude": -35.3461969,
   "longitude": 150.4705258,
   "Charger type": "AC (level 2)",
   "Name": "Mollymook Seascape Motel",
   "State": "NSW",
   "stations": 2,
   "Plug types": "Type 2",
   "Charging Network": "Tesla Destination",
   "Power (kW)": 17,
   "Hardware brand": "",
   "Address": "22 Princes Hwy, Mollymook NSW 2539, Australia",
   "Postcode": 2539
 },
 {
   "latitude": -35.339796,
   "longitude": 150.4728481,
   "Charger type": "DC (level 3)",
   "Name": "Mollymook Surfbeach Motel",
   "State": "NSW",
   "stations": 3,
   "Plug types": "Both CHAdeMO & CCS Combo 2/SAE",
   "Charging Network": "Tesla Destination",
   "Power (kW)": 22,
   "Hardware brand": "Tesla",
   "Address": "2 Shepherd St, Mollymook NSW 2539, Australia",
   "Postcode": 2539
 },
 {
   "latitude": -35.9139953,
   "longitude": 150.0753668,
   "Charger type": "AC (level 2)",
   "Name": "Moruya Golf Club",
   "State": "NSW",
   "stations": 2,
   "Plug types": "J-1772",
   "Charging Network": "Tesla Destination",
   "Power (kW)": 11,
   "Hardware brand": "",
   "Address": "28A Evans St, Moruya NSW 2537, Australia",
   "Postcode": 2537
 },
 {
   "latitude": -34.8402325,
   "longitude": 150.7320802,
   "Charger type": "AC (level 2)",
   "Name": "Mountain Ridge Wines",
   "State": "NSW",
   "stations": 2,
   "Plug types": "Tesla (Type 2)",
   "Charging Network": "Tesla Destination",
   "Power (kW)": 7,
   "Hardware brand": "",
   "Address": "11 Coolangatta Rd, Coolangatta NSW 2535, Australia",
   "Postcode": 2535
 },
 {
   "latitude": -32.5903292,
   "longitude": 149.5853481,
   "Charger type": "AC (level 2)",
   "Name": "Mudgee Information Centre",
   "State": "NSW",
   "stations": 1,
   "Plug types": "Tesla (Type 2)",
   "Charging Network": "Tesla Destination",
   "Power (kW)": 11.5,
   "Hardware brand": "Tesla",
   "Address": "84 Market St, Mudgee NSW 2850, Australia",
   "Postcode": 2850
 },
 {
   "latitude": -30.6542475,
   "longitude": 152.9877174,
   "Charger type": "AC (level 2)",
   "Name": "Nambucca Plaza Shopping Centre",
   "State": "NSW",
   "stations": 2,
   "Plug types": "Tesla (Type 2)",
   "Charging Network": "Tesla Destination",
   "Power (kW)": 22,
   "Hardware brand": "Tesla",
   "Address": "2191 Giinagay Way, Nambucca Heads NSW 2448, Australia",
   "Postcode": 2448
 },
 {
   "latitude": -29.7910481,
   "longitude": 151.1211823,
   "Charger type": "DC (level 3)",
   "Name": "National Transport Museum Inverell",
   "State": "NSW",
   "stations": 1,
   "Plug types": "Both CHAdeMO & CCS Combo 2/SAE",
   "Charging Network": "",
   "Power (kW)": null,
   "Hardware brand": "",
   "Address": "11 Rifle Range Rd, Inverell NSW 2360, Australia",
   "Postcode": 2360
 },
 {
   "latitude": -32.7207476,
   "longitude": 152.1429882,
   "Charger type": "AC (level 2)",
   "Name": "Nelson Resort & Conference Centre",
   "State": "NSW",
   "stations": 2,
   "Plug types": "Type 2",
   "Charging Network": "Tesla Destination",
   "Power (kW)": 6,
   "Hardware brand": "Tesla",
   "Address": "3 Government Rd, Nelson Bay NSW 2315, Australia",
   "Postcode": 2315
 },
 {
   "latitude": -31.4283576,
   "longitude": 152.9113522,
   "Charger type": "AC (level 2)",
   "Name": "Northpoint Holiday Apartments",
   "State": "NSW",
   "stations": 2,
   "Plug types": "Tesla (Type 2)",
   "Charging Network": "Tesla Destination",
   "Power (kW)": 22,
   "Hardware brand": "",
   "Address": "2 Murray St, Port Macquarie NSW 2444, Australia",
   "Postcode": 2444
 },
 {
   "latitude": -32.9292642,
   "longitude": 151.784893,
   "Charger type": "AC (level 2)",
   "Name": "Novotel Newcastle Beach",
   "State": "NSW",
   "stations": 1,
   "Plug types": "Type 2",
   "Charging Network": "Tesla Destination",
   "Power (kW)": 22,
   "Hardware brand": "Tesla",
   "Address": "5 King St, Newcastle NSW 2300, Australia",
   "Postcode": 2300
 },
 {
   "latitude": -33.8817471,
   "longitude": 151.2027944,
   "Charger type": "AC (level 2)",
   "Name": "Novotel Sydney Central",
   "State": "NSW",
   "stations": 2,
   "Plug types": "Tesla (Type 2)",
   "Charging Network": "Tesla Destination",
   "Power (kW)": 22,
   "Hardware brand": "",
   "Address": "179 Thomas St, Haymarket NSW 2000, Australia",
   "Postcode": 2000
 },
 {
   "latitude": -32.758988,
   "longitude": 151.2523686,
   "Charger type": "AC (level 2)",
   "Name": "Oakvale Wines",
   "State": "NSW",
   "stations": 2,
   "Plug types": "Type 2",
   "Charging Network": "Tesla Destination",
   "Power (kW)": 22,
   "Hardware brand": "Tesla",
   "Address": "1596 Broke Rd, Pokolbin NSW 2320, Australia",
   "Postcode": 2320
 },
 {
   "latitude": -33.7087606,
   "longitude": 149.857737,
   "Charger type": "DC (level 3)",
   "Name": "Oberon Visitor Information Centre",
   "State": "NSW",
   "stations": 2,
   "Plug types": "Both CHAdeMO & CCS Combo 2/SAE",
   "Charging Network": "Tesla Destination",
   "Power (kW)": 22,
   "Hardware brand": "Tesla",
   "Address": "48 Ross St, Oberon NSW 2787, Australia",
   "Postcode": 2787
 },
 {
   "latitude": -29.0558102,
   "longitude": 152.0202551,
   "Charger type": "AC (level 2)",
   "Name": "Old Council Chambers Luxury Accommodation",
   "State": "NSW",
   "stations": 2,
   "Plug types": "Tesla (Type 2)",
   "Charging Network": "Tesla Destination",
   "Power (kW)": 6,
   "Hardware brand": "Tesla",
   "Address": "157 Manners St, Tenterfield NSW 2372, Australia",
   "Postcode": 2372
 },
 {
   "latitude": -32.2546157,
   "longitude": 148.6087193,
   "Charger type": "AC (level 2)",
   "Name": "Orana Motel",
   "State": "NSW",
   "stations": 2,
   "Plug types": "J-1772",
   "Charging Network": "Tesla Destination",
   "Power (kW)": 22,
   "Hardware brand": "Tesla",
   "Address": "95 Cobra St, Dubbo NSW 2830, Australia",
   "Postcode": 2830
 },
 {
   "latitude": -30.2672222,
   "longitude": 153.1347222,
   "Charger type": "AC (level 2)",
   "Name": "Pacific Bay Resort",
   "State": "NSW",
   "stations": 2,
   "Plug types": "Type 2",
   "Charging Network": "",
   "Power (kW)": null,
   "Hardware brand": "",
   "Address": "Cnr Pacific Hwy and, Bay Dr, Coffs Harbour NSW 2450, Australia",
   "Postcode": 2450
 },
 {
   "latitude": -33.8891245,
   "longitude": 151.2756383,
   "Charger type": "DC (level 3)",
   "Name": "Pacific Bondi Beach",
   "State": "NSW",
   "stations": 2,
   "Plug types": "Tesla (Supercharger)",
   "Charging Network": "Tesla Destination",
   "Power (kW)": 22,
   "Hardware brand": "",
   "Address": "180 Campbell Parade, Bondi Beach NSW 2026, Australia",
   "Postcode": 2026
 },
 {
   "latitude": -33.8557235,
   "longitude": 151.2097888,
   "Charger type": "DC (level 3)",
   "Name": "Park Hyatt Sydney",
   "State": "NSW",
   "stations": 2,
   "Plug types": "Both CHAdeMO & CCS Combo 2/SAE",
   "Charging Network": "Tesla Destination",
   "Power (kW)": 6,
   "Hardware brand": "",
   "Address": "7 Hickson Rd, The Rocks NSW 2000, Australia",
   "Postcode": 2000
 },
 {
   "latitude": -33.9294123,
   "longitude": 151.1856578,
   "Charger type": "AC (level 2)",
   "Name": "Park on King",
   "State": "NSW",
   "stations": 2,
   "Plug types": "Tesla (Type 2)",
   "Charging Network": "Tesla Destination",
   "Power (kW)": 22,
   "Hardware brand": "",
   "Address": "338 King St, Mascot NSW 2020, Australia",
   "Postcode": 2020
 },
 {
   "latitude": -33.7503559,
   "longitude": 151.2859224,
   "Charger type": "AC (level 2)",
   "Name": "PCYC Carpark - 1",
   "State": "NSW",
   "stations": 1,
   "Plug types": "Tesla (Type 2)",
   "Charging Network": "Tesla Destination",
   "Power (kW)": 22,
   "Hardware brand": "",
   "Address": "42-46 Kingsway, Dee Why NSW 2099, Australia",
   "Postcode": 2099
 },
 {
   "latitude": -32.7211829,
   "longitude": 148.190703,
   "Charger type": "AC (level 2)",
   "Name": "Peak Hill Caravan Park",
   "State": "NSW",
   "stations": 1,
   "Plug types": "Type 2",
   "Charging Network": "Tesla Destination",
   "Power (kW)": 22,
   "Hardware brand": "Tesla",
   "Address": "2 Ween St, Peak Hill NSW 2869, Australia",
   "Postcode": 2869
 },
 {
   "latitude": -32.7753762,
   "longitude": 151.3407758,
   "Charger type": "AC (level 2)",
   "Name": "Peterson House",
   "State": "NSW",
   "stations": 1,
   "Plug types": "Type 2",
   "Charging Network": "Tesla Destination",
   "Power (kW)": 22,
   "Hardware brand": "Tesla",
   "Address": "Broke Rd & Wine Country Dr, Pokolbin NSW 2320, Australia",
   "Postcode": 2320
 },
 {
   "latitude": -30.5547643,
   "longitude": 151.6826632,
   "Charger type": "AC (level 2)",
   "Name": "Petersons Armidale Winery & Guesthouse",
   "State": "NSW",
   "stations": 1,
   "Plug types": "J-1772",
   "Charging Network": "Tesla Destination",
   "Power (kW)": 7,
   "Hardware brand": "Tesla",
   "Address": "345 Dangarsleigh Rd, Armidale NSW 2350, Australia",
   "Postcode": 2350
 },
 {
   "latitude": -32.8334393,
   "longitude": 151.3041633,
   "Charger type": "AC (level 2)",
   "Name": "Petersons Wines",
   "State": "NSW",
   "stations": 1,
   "Plug types": "Type 2",
   "Charging Network": "Tesla Destination",
   "Power (kW)": 6,
   "Hardware brand": "Tesla",
   "Address": "522 Mount View Rd, Cessnock NSW 2325, Australia",
   "Postcode": 2325
 },
 {
   "latitude": -32.5482247,
   "longitude": 149.6307106,
   "Charger type": "AC (level 2)",
   "Name": "Petersons Wines",
   "State": "NSW",
   "stations": 1,
   "Plug types": "Type 2",
   "Charging Network": "Tesla Destination",
   "Power (kW)": 8,
   "Hardware brand": "Tesla",
   "Address": "6 Black Springs Rd, Eurunderee NSW 2850, Australia",
   "Postcode": 2850
 },
 {
   "latitude": -35.107578,
   "longitude": 149.2794567,
   "Charger type": "DC (level 3)",
   "Name": "Petrichor Farm",
   "State": "NSW",
   "stations": 1,
   "Plug types": "Both CHAdeMO & CCS Combo 2/SAE",
   "Charging Network": "Tesla Destination",
   "Power (kW)": 7,
   "Hardware brand": "",
   "Address": "89 Haskins Way, Gundaroo NSW 2620, Australia",
   "Postcode": 2620
 },
 {
   "latitude": -33.85419,
   "longitude": 151.2081547,
   "Charger type": "AC (level 2)",
   "Name": "Pier One Sydney Harbour",
   "State": "NSW",
   "stations": 2,
   "Plug types": "Type 2",
   "Charging Network": "Tesla Destination",
   "Power (kW)": 22,
   "Hardware brand": "",
   "Address": "11 Hickson Rd, Dawes Point NSW 2000, Australia",
   "Postcode": 2000
 },
 {
   "latitude": -28.3428005,
   "longitude": 153.4002885,
   "Charger type": "AC (level 2)",
   "Name": "Poinciana Motel",
   "State": "NSW",
   "stations": 2,
   "Plug types": "J-1772",
   "Charging Network": "Tesla Destination",
   "Power (kW)": 22,
   "Hardware brand": "Tesla",
   "Address": "Gallery Motel, 453 Tweed Valley Way, South Murwillumbah NSW 2484, Australia",
   "Postcode": 2484
 },
 {
   "latitude": -32.051564,
   "longitude": 150.8671373,
   "Charger type": "AC (level 2)",
   "Name": "Portman House",
   "State": "NSW",
   "stations": 2,
   "Plug types": "Type 2",
   "Charging Network": "Tesla Destination",
   "Power (kW)": 22,
   "Hardware brand": "Tesla",
   "Address": "205 Kelly St, Scone NSW 2337, Australia",
   "Postcode": 2337
 },
 {
   "latitude": -33.8762429,
   "longitude": 151.2125209,
   "Charger type": "AC (level 2)",
   "Name": "Pullman Sydney Hyde Park",
   "State": "NSW",
   "stations": 2,
   "Plug types": "Tesla (Type 2)",
   "Charging Network": "Tesla Destination",
   "Power (kW)": 4,
   "Hardware brand": "",
   "Address": "36 College St, Darlinghurst NSW 2010, Australia",
   "Postcode": 2010
 },
 {
   "latitude": -28.8681167,
   "longitude": 153.5886496,
   "Charger type": "AC (level 2)",
   "Name": "Quality Hotel Ballina Beach Resort",
   "State": "NSW",
   "stations": 2,
   "Plug types": "Tesla (Type 2)",
   "Charging Network": "Tesla Destination",
   "Power (kW)": 22,
   "Hardware brand": "Tesla",
   "Address": "1 Foster St, East Ballina NSW 2478, Australia",
   "Postcode": 2478
 },
 {
   "latitude": -30.5061822,
   "longitude": 151.6724328,
   "Charger type": "AC (level 2)",
   "Name": "Quality Hotel Powerhouse",
   "State": "NSW",
   "stations": 2,
   "Plug types": "Tesla (Type 2)",
   "Charging Network": "Tesla Destination",
   "Power (kW)": 22,
   "Hardware brand": "Tesla",
   "Address": "31 Marsh St, Armidale NSW 2350, Australia",
   "Postcode": 2350
 },
 {
   "latitude": -35.1306974,
   "longitude": 147.3401364,
   "Charger type": "DC (level 3)",
   "Name": "Quality Hotel Rules Club Wagga",
   "State": "NSW",
   "stations": 1,
   "Plug types": "Both CHAdeMO & CCS Combo 2/SAE",
   "Charging Network": "Tesla Destination",
   "Power (kW)": 22,
   "Hardware brand": "",
   "Address": "188 Fernleigh Rd, Wagga Wagga NSW 2650, Australia",
   "Postcode": 2650
 },
 {
   "latitude": -33.8711794,
   "longitude": 151.2061077,
   "Charger type": "DC (level 3)",
   "Name": "Queen Victoria Building - Valet Parking",
   "State": "NSW",
   "stations": 2,
   "Plug types": "Both CHAdeMO & CCS Combo 2/SAE",
   "Charging Network": "Tesla Destination",
   "Power (kW)": 22,
   "Hardware brand": "",
   "Address": "111 York St, Sydney NSW 2000, Australia",
   "Postcode": 2000
 },
 {
   "latitude": -28.5953327,
   "longitude": 153.226753,
   "Charger type": "DC (level 3)",
   "Name": "Rainbow Power Company",
   "State": "NSW",
   "stations": 1,
   "Plug types": "Both CHAdeMO & CCS Combo 2/SAE",
   "Charging Network": "Tesla Destination",
   "Power (kW)": 10,
   "Hardware brand": "",
   "Address": "1 Alternative Way, Nimbin NSW 2480, Australia",
   "Postcode": 2480
 },
 {
   "latitude": -33.8351248,
   "longitude": 151.084473,
   "Charger type": "AC (level 2)",
   "Name": "Rhodes Waterside",
   "State": "NSW",
   "stations": 4,
   "Plug types": "Tesla (Type 2)",
   "Charging Network": "Tesla Destination",
   "Power (kW)": 22,
   "Hardware brand": "",
   "Address": "1 Rider Blvd, Rhodes NSW 2138, Australia",
   "Postcode": 2138
 },
 {
   "latitude": -33.7299524,
   "longitude": 150.7807061,
   "Charger type": "AC (level 2)",
   "Name": "Ropes Crossing Village Shopping Centre",
   "State": "NSW",
   "stations": 1,
   "Plug types": "Tesla (Type 2)",
   "Charging Network": "Tesla Destination",
   "Power (kW)": 22,
   "Hardware brand": "Tesla",
   "Address": "8 Ropes Crossing Blvd, Ropes Crossing NSW 2760, Australia",
   "Postcode": 2760
 },
 {
   "latitude": -33.3335,
   "longitude": 149.043181,
   "Charger type": "AC (level 2)",
   "Name": "Ross Hill Wines",
   "State": "NSW",
   "stations": 1,
   "Plug types": "Tesla (Type 2)",
   "Charging Network": "Tesla Destination",
   "Power (kW)": 14,
   "Hardware brand": "Tesla",
   "Address": "134 Wallace Ln, Orange NSW 2800, Australia",
   "Postcode": 2800
 },
 {
   "latitude": -33.6906736,
   "longitude": 150.9258319,
   "Charger type": "DC (level 3)",
   "Name": "Rouse Hill Town Centre - Purple Car Park",
   "State": "NSW",
   "stations": 2,
   "Plug types": "Both CHAdeMO & CCS Combo 2/SAE",
   "Charging Network": "Tesla Destination",
   "Power (kW)": 22,
   "Hardware brand": "",
   "Address": "72 Civic Way, Rouse Hill NSW 2155, Australia",
   "Postcode": 2155
 },
 {
   "latitude": -31.4271206,
   "longitude": 152.8982979,
   "Charger type": "AC (level 2)",
   "Name": "Sails Port Macquarie",
   "State": "NSW",
   "stations": 2,
   "Plug types": "Tesla (Type 2)",
   "Charging Network": "Tesla Destination",
   "Power (kW)": 22,
   "Hardware brand": "Tesla",
   "Address": "20 Park St, Port Macquarie NSW 2444, Australia",
   "Postcode": 2444
 },
 {
   "latitude": -32.8313564,
   "longitude": 151.3187613,
   "Charger type": "DC (level 3)",
   "Name": "Savannah Estate",
   "State": "NSW",
   "stations": 1,
   "Plug types": "Both CHAdeMO & CCS Combo 2/SAE",
   "Charging Network": "Tesla Destination",
   "Power (kW)": 6,
   "Hardware brand": "Tesla",
   "Address": "211/402 Mount View Rd, Mount View NSW 2325, Australia",
   "Postcode": 2325
 },
 {
   "latitude": -30.3701045,
   "longitude": 153.0991893,
   "Charger type": "AC (level 2)",
   "Name": "Sawtell Motor Inn",
   "State": "NSW",
   "stations": 2,
   "Plug types": "Tesla (Type 2)",
   "Charging Network": "Tesla Destination",
   "Power (kW)": 3,
   "Hardware brand": "",
   "Address": "Sawtell Motor Inn, 57 Boronia St, Sawtell NSW 2452, Australia",
   "Postcode": 2452
 },
 {
   "latitude": -33.7290181,
   "longitude": 150.2998321,
   "Charger type": "AC (level 2)",
   "Name": "Scenic World",
   "State": "NSW",
   "stations": 2,
   "Plug types": "Tesla (Type 2)",
   "Charging Network": "Tesla Destination",
   "Power (kW)": 22,
   "Hardware brand": "Tesla",
   "Address": "Violet St & Cliff Dr, Katoomba NSW 2780, Australia",
   "Postcode": 2780
 },
 {
   "latitude": -35.0463072,
   "longitude": 150.6703145,
   "Charger type": "AC (level 2)",
   "Name": "Sea Mist Jervis Bay",
   "State": "NSW",
   "stations": 2,
   "Plug types": "Tesla (Type 2)",
   "Charging Network": "Tesla Destination",
   "Power (kW)": 22,
   "Hardware brand": "",
   "Address": "13 Berry St, Huskisson NSW 2540, Australia",
   "Postcode": 2540
 },
 {
   "latitude": -28.1977059,
   "longitude": 153.5057332,
   "Charger type": "AC (level 2)",
   "Name": "Seagulls Club",
   "State": "NSW",
   "stations": 2,
   "Plug types": "Tesla (Type 2)",
   "Charging Network": "Tesla Destination",
   "Power (kW)": 22,
   "Hardware brand": "",
   "Address": "Unit 54/68 Gollan Dr, Tweed Heads West NSW 2485, Australia",
   "Postcode": 2485
 },
 {
   "latitude": -29.0405647,
   "longitude": 152.0199321,
   "Charger type": "DC (level 3)",
   "Name": "Settlers Motor Inn",
   "State": "NSW",
   "stations": 2,
   "Plug types": "Both CHAdeMO & CCS Combo 2/SAE",
   "Charging Network": "Tesla Destination",
   "Power (kW)": 3,
   "Hardware brand": "Tesla",
   "Address": "120 New England Hwy, Tenterfield NSW 2372, Australia",
   "Postcode": 2372
 },
 {
   "latitude": -34.9761042,
   "longitude": 149.0082813,
   "Charger type": "AC (level 2)",
   "Name": "Shaw Wines",
   "State": "NSW",
   "stations": 2,
   "Plug types": "J-1772",
   "Charging Network": "Tesla Destination",
   "Power (kW)": 22,
   "Hardware brand": "",
   "Address": "34 Isabel Dr, Murrumbateman NSW 2582, Australia",
   "Postcode": 2582
 },
 {
   "latitude": -33.8715295,
   "longitude": 151.2097193,
   "Charger type": "AC (level 2)",
   "Name": "Sheraton Grand Hyde Park",
   "State": "NSW",
   "stations": 2,
   "Plug types": "J-1772",
   "Charging Network": "Tesla Destination",
   "Power (kW)": 22,
   "Hardware brand": "",
   "Address": "161 Elizabeth St, Sydney NSW 2000, Australia",
   "Postcode": 2000
 },
 {
   "latitude": -33.3154277,
   "longitude": 149.0221838,
   "Charger type": "AC (level 2)",
   "Name": "Sisters Rock Restaurant",
   "State": "NSW",
   "stations": 1,
   "Plug types": "J-1772",
   "Charging Network": "Tesla Destination",
   "Power (kW)": 22,
   "Hardware brand": "Tesla",
   "Address": "Borrodell, 298 Lake Canobolas Rd, Canobolas NSW 2800, Australia",
   "Postcode": 2800
 },
 {
   "latitude": -33.6303798,
   "longitude": 150.8439909,
   "Charger type": "AC (level 2)",
   "Name": "Skyline Solar ( Working Now )",
   "State": "NSW",
   "stations": 1,
   "Plug types": "Tesla (Type 2)",
   "Charging Network": "",
   "Power (kW)": null,
   "Hardware brand": "",
   "Address": "317 Windsor Rd, Vineyard NSW 2765, Australia",
   "Postcode": 2765
 },
 {
   "latitude": -32.7015766,
   "longitude": 152.0631385,
   "Charger type": "AC (level 2)",
   "Name": "Soldiers Point Marina",
   "State": "NSW",
   "stations": 2,
   "Plug types": "Type 2",
   "Charging Network": "Tesla Destination",
   "Power (kW)": 22,
   "Hardware brand": "Tesla",
   "Address": "2 Sunset Blvd, Soldiers Point NSW 2317, Australia",
   "Postcode": 2317
 },
 {
   "latitude": -32.7780074,
   "longitude": 151.2713445,
   "Charger type": "AC (level 2)",
   "Name": "Spicer's Guesthouse",
   "State": "NSW",
   "stations": 2,
   "Plug types": "Tesla (Type 2)",
   "Charging Network": "",
   "Power (kW)": null,
   "Hardware brand": "",
   "Address": "Ekerts Rd, Pokolbin NSW 2320, Australia",
   "Postcode": 2320
 },
 {
   "latitude": -32.6963867,
   "longitude": 151.2617226,
   "Charger type": "AC (level 2)",
   "Name": "Spicers Hunter Valley",
   "State": "NSW",
   "stations": 2,
   "Plug types": "Type 2",
   "Charging Network": "Tesla Destination",
   "Power (kW)": 22,
   "Hardware brand": "Tesla",
   "Address": "555 Hermitage Rd, Pokolbin NSW 2320, Australia",
   "Postcode": 2320
 },
 {
   "latitude": -32.6963867,
   "longitude": 151.2617226,
   "Charger type": "AC (level 2)",
   "Name": "Spicers Vineyards Estate",
   "State": "NSW",
   "stations": 1,
   "Plug types": "Type 2",
   "Charging Network": "Tesla Destination",
   "Power (kW)": 11,
   "Hardware brand": "",
   "Address": "555 Hermitage Rd, Pokolbin NSW 2320, Australia",
   "Postcode": 2320
 },
 {
   "latitude": -34.6068718,
   "longitude": 150.2776046,
   "Charger type": "AC (level 2)",
   "Name": "St Maur Winery",
   "State": "NSW",
   "stations": 1,
   "Plug types": "Tesla (Type 2)",
   "Charging Network": "Tesla Destination",
   "Power (kW)": 22,
   "Hardware brand": "",
   "Address": "238 Old Argyle Rd, Exeter NSW 2579, Australia",
   "Postcode": 2579
 },
 {
   "latitude": -33.7186167,
   "longitude": 150.9200078,
   "Charger type": "AC (level 2)",
   "Name": "Stanhope Village Shopping Centre",
   "State": "NSW",
   "stations": 3,
   "Plug types": "Tesla (Type 2)",
   "Charging Network": "Tesla Destination",
   "Power (kW)": 22,
   "Hardware brand": "",
   "Address": "2 Sentry Dr, Stanhope Gardens NSW 2768, Australia",
   "Postcode": 2768
 },
 {
   "latitude": -33.4182154,
   "longitude": 149.5829797,
   "Charger type": "AC (level 2)",
   "Name": "Stockland",
   "State": "NSW",
   "stations": 2,
   "Plug types": "Tesla (Type 2)",
   "Charging Network": "Tesla Destination",
   "Power (kW)": 6,
   "Hardware brand": "Tesla",
   "Address": "121 Howick St, Bathurst NSW 2795, Australia",
   "Postcode": 2795
 },
 {
   "latitude": -33.7930797,
   "longitude": 151.2643177,
   "Charger type": "AC (level 2)",
   "Name": "Stockland Balgowlah",
   "State": "NSW",
   "stations": 3,
   "Plug types": "Tesla (Type 2)",
   "Charging Network": "Tesla Destination",
   "Power (kW)": 22,
   "Hardware brand": "",
   "Address": "197-215 Condamine St, Balgowlah NSW 2093, Australia",
   "Postcode": 2093
 },
 {
   "latitude": -33.7590552,
   "longitude": 150.9915552,
   "Charger type": "AC (level 2)",
   "Name": "Stockland Baulkham Hills Mall",
   "State": "NSW",
   "stations": 1,
   "Plug types": "Tesla (Type 2)",
   "Charging Network": "Tesla Destination",
   "Power (kW)": 22,
   "Hardware brand": "",
   "Address": "375 Windsor Rd, Baulkham Hills NSW 2153, Australia",
   "Postcode": 2153
 },
 {
   "latitude": -33.8236017,
   "longitude": 151.2097047,
   "Charger type": "AC (level 2)",
   "Name": "Stockland Cammeray",
   "State": "NSW",
   "stations": 1,
   "Plug types": "Tesla (Type 2)",
   "Charging Network": "Tesla Destination",
   "Power (kW)": 22,
   "Hardware brand": "",
   "Address": "450 Miller St, Cammeray NSW 2062, Australia",
   "Postcode": 2062
 },
 {
   "latitude": -32.1995922,
   "longitude": 152.5200713,
   "Charger type": "AC (level 2)",
   "Name": "Stockland Forster",
   "State": "NSW",
   "stations": 2,
   "Plug types": "Type 2",
   "Charging Network": "Tesla Destination",
   "Power (kW)": 22,
   "Hardware brand": "",
   "Address": "123 Breese Parade, Forster NSW 2428, Australia",
   "Postcode": 2428
 },
 {
   "latitude": -32.9343229,
   "longitude": 151.6421833,
   "Charger type": "AC (level 2)",
   "Name": "Stockland Glendale",
   "State": "NSW",
   "stations": 2,
   "Plug types": "Tesla (Type 2)",
   "Charging Network": "Tesla Destination",
   "Power (kW)": 22,
   "Hardware brand": "",
   "Address": "387 Lake Rd, Glendale NSW 2285, Australia",
   "Postcode": 2285
 },
 {
   "latitude": -32.7607519,
   "longitude": 151.5907354,
   "Charger type": "DC (level 3)",
   "Name": "Stockland Green Hills",
   "State": "NSW",
   "stations": 2,
   "Plug types": "Both CHAdeMO & CCS Combo 2/SAE",
   "Charging Network": "Tesla Destination",
   "Power (kW)": 22,
   "Hardware brand": "",
   "Address": "12 Mitchell Dr, East Maitland NSW 2323, Australia",
   "Postcode": 2323
 },
 {
   "latitude": -32.9027533,
   "longitude": 151.6902806,
   "Charger type": "DC (level 3)",
   "Name": "Stockland Jesmond",
   "State": "NSW",
   "stations": 1,
   "Plug types": "Tesla (Supercharger)",
   "Charging Network": "Tesla Destination",
   "Power (kW)": 6,
   "Hardware brand": "",
   "Address": "28 Blue Gum Rd, Jesmond NSW 2299, Australia",
   "Postcode": 2299
 },
 {
   "latitude": -33.8358671,
   "longitude": 150.9915856,
   "Charger type": "AC (level 2)",
   "Name": "Stockland Merrylands",
   "State": "NSW",
   "stations": 2,
   "Plug types": "Tesla (Type 2)",
   "Charging Network": "Tesla Destination",
   "Power (kW)": 22,
   "Hardware brand": "Tesla",
   "Address": "Pitt St & McFarlane St, Merrylands NSW 2160, Australia",
   "Postcode": 2160
 },
 {
   "latitude": -34.56286,
   "longitude": 150.8402774,
   "Charger type": "AC (level 2)",
   "Name": "Stockland Shellharbour - East",
   "State": "NSW",
   "stations": 2,
   "Plug types": "J-1772",
   "Charging Network": "Tesla Destination",
   "Power (kW)": 6,
   "Hardware brand": "",
   "Address": "211 Lake Entrance Rd, Shellharbour City Centre NSW 2529, Australia",
   "Postcode": 2529
 },
 {
   "latitude": -34.5649659,
   "longitude": 150.840232,
   "Charger type": "AC (level 2)",
   "Name": "Stockland Shellharbour - West",
   "State": "NSW",
   "stations": 2,
   "Plug types": "Tesla (Type 2)",
   "Charging Network": "Tesla Destination",
   "Power (kW)": 6,
   "Hardware brand": "",
   "Address": "Ground, Stockland Shellharbour, 211 Lake Entrance Rd, Shellharbour NSW 2529, Australia",
   "Postcode": 2529
 },
 {
   "latitude": -33.8593157,
   "longitude": 150.8978985,
   "Charger type": "AC (level 2)",
   "Name": "Stockland Wetherill Park",
   "State": "NSW",
   "stations": 2,
   "Plug types": "Tesla (Type 2)",
   "Charging Network": "Tesla Destination",
   "Power (kW)": 22,
   "Hardware brand": "Tesla",
   "Address": "561/583 Polding St, Wetherill Park NSW 2164, Australia",
   "Postcode": 2164
 },
 {
   "latitude": -33.9024515,
   "longitude": 151.2152205,
   "Charger type": "AC (level 2)",
   "Name": "Supa Centa Moore Park",
   "State": "NSW",
   "stations": 1,
   "Plug types": "Tesla (Type 2)",
   "Charging Network": "Tesla Destination",
   "Power (kW)": 22,
   "Hardware brand": "",
   "Address": "2 Todman Ave, Kensington NSW 2033, Australia",
   "Postcode": 2033
 },
 {
   "latitude": -33.7698966,
   "longitude": 150.6729235,
   "Charger type": "AC (level 2)",
   "Name": "Supercheap Auto",
   "State": "NSW",
   "stations": 2,
   "Plug types": "Tesla (Type 2)",
   "Charging Network": "Tesla Destination",
   "Power (kW)": 22,
   "Hardware brand": "Tesla",
   "Address": "2227 Wolseley St, Jamisontown NSW 2750, Australia",
   "Postcode": 2750
 },
 {
   "latitude": -28.6398972,
   "longitude": 153.6076678,
   "Charger type": "AC (level 2)",
   "Name": "Suranadi Beach Houses",
   "State": "NSW",
   "stations": 2,
   "Plug types": "Tesla (Type 2)",
   "Charging Network": "Tesla Destination",
   "Power (kW)": 6,
   "Hardware brand": "",
   "Address": "3 Cavvanbah St, Byron Bay NSW 2481, Australia",
   "Postcode": 2481
 },
 {
   "latitude": -33.9329646,
   "longitude": 151.180012,
   "Charger type": "AC (level 2)",
   "Name": "Sydney Airport - Qantas Valet Parking",
   "State": "NSW",
   "stations": 2,
   "Plug types": "Tesla (Type 2)",
   "Charging Network": "Tesla Destination",
   "Power (kW)": 7,
   "Hardware brand": "",
   "Address": "Sydney Airport, Sydney Airport (SYD), Domestic Terminal 3 Arrivals Arrivals Rd, Mascot NSW 2020, Australia",
   "Postcode": 2020
 },
 {
   "latitude": -33.8631454,
   "longitude": 151.0718938,
   "Charger type": "AC (level 2)",
   "Name": "Sydney Markets",
   "State": "NSW",
   "stations": 1,
   "Plug types": "Type 2",
   "Charging Network": "",
   "Power (kW)": null,
   "Hardware brand": "",
   "Address": "250/318 Parramatta Rd, Homebush West NSW 2140, Australia",
   "Postcode": 2140
 },
 {
   "latitude": -33.860054,
   "longitude": 151.0712501,
   "Charger type": "AC (level 2)",
   "Name": "Sydney Markets",
   "State": "NSW",
   "stations": 2,
   "Plug types": "Type 2",
   "Charging Network": "Tesla Destination",
   "Power (kW)": 22,
   "Hardware brand": "",
   "Address": "250/318 Parramatta Rd, Homebush West NSW 2140, Australia",
   "Postcode": 2140
 },
 {
   "latitude": -33.8037992,
   "longitude": 150.8676991,
   "Charger type": "AC (level 2)",
   "Name": "Sydney Motorsport Park",
   "State": "NSW",
   "stations": 2,
   "Plug types": "J-1772",
   "Charging Network": "Tesla Destination",
   "Power (kW)": 22,
   "Hardware brand": "",
   "Address": "1 Ferrers Rd, Eastern Creek NSW 2766, Australia",
   "Postcode": 2766
 },
 {
   "latitude": -33.8449744,
   "longitude": 151.0607053,
   "Charger type": "AC (level 2)",
   "Name": "Sydney Olympic Park",
   "State": "NSW",
   "stations": 2,
   "Plug types": "Tesla (Type 2)",
   "Charging Network": "Tesla Destination",
   "Power (kW)": 22,
   "Hardware brand": "Tesla",
   "Address": "15 Edwin Flack Ave, Sydney Olympic Park NSW 2127, Australia",
   "Postcode": 2127
 },
 {
   "latitude": -32.7822086,
   "longitude": 151.3022139,
   "Charger type": "AC (level 2)",
   "Name": "Tamburlaine Wines",
   "State": "NSW",
   "stations": 2,
   "Plug types": "Type 2",
   "Charging Network": "Tesla Destination",
   "Power (kW)": 22,
   "Hardware brand": "Tesla",
   "Address": "358 McDonalds Rd, Pokolbin NSW 2320, Australia",
   "Postcode": 2320
 },
 {
   "latitude": -33.8645502,
   "longitude": 151.2061462,
   "Charger type": "AC (level 2)",
   "Name": "The Amora Hotel Jamison Sydney",
   "State": "NSW",
   "stations": 2,
   "Plug types": "Type 2",
   "Charging Network": "Tesla Destination",
   "Power (kW)": 22,
   "Hardware brand": "",
   "Address": "11 Jamison St, Sydney NSW 2000, Australia",
   "Postcode": 2000
 },
 {
   "latitude": -36.426114,
   "longitude": 150.063369,
   "Charger type": "AC (level 2)",
   "Name": "The Anchorage",
   "State": "NSW",
   "stations": 2,
   "Plug types": "Type 2",
   "Charging Network": "Tesla Destination",
   "Power (kW)": 17,
   "Hardware brand": "Tesla",
   "Address": "2 West St, Bermagui NSW 2546, Australia",
   "Postcode": 2546
 },
 {
   "latitude": -33.813922,
   "longitude": 151.169515,
   "Charger type": "AC (level 2)",
   "Name": "The Canopy Lane Cove - P3",
   "State": "NSW",
   "stations": 3,
   "Plug types": "Type 2",
   "Charging Network": "Tesla Destination",
   "Power (kW)": 2,
   "Hardware brand": "",
   "Address": "2/24 Birdwood Ln, Sydney NSW 2066, Australia",
   "Postcode": 2066
 },
 {
   "latitude": -35.2565207,
   "longitude": 149.4400298,
   "Charger type": "AC (level 2)",
   "Name": "The Carrington Inn",
   "State": "NSW",
   "stations": 2,
   "Plug types": "Type 2",
   "Charging Network": "Tesla Destination",
   "Power (kW)": 6,
   "Hardware brand": "",
   "Address": "21 Malbon St, Bungendore NSW 2621, Australia",
   "Postcode": 2621
 },
 {
   "latitude": -34.8712534,
   "longitude": 147.5820007,
   "Charger type": "AC (level 2)",
   "Name": "The Crossing Motel",
   "State": "NSW",
   "stations": 2,
   "Plug types": "Tesla (Type 2)",
   "Charging Network": "Tesla Destination",
   "Power (kW)": 22,
   "Hardware brand": "Tesla",
   "Address": "39 Seignior St, Junee NSW 2663, Australia",
   "Postcode": 2663
 },
 {
   "latitude": -33.3526728,
   "longitude": 151.4902939,
   "Charger type": "AC (level 2)",
   "Name": "The Entrance Motel",
   "State": "NSW",
   "stations": 1,
   "Plug types": "Type 2",
   "Charging Network": "Tesla Destination",
   "Power (kW)": 22,
   "Hardware brand": "",
   "Address": "212 The Entrance Rd, Long Jetty NSW 2261, Australia",
   "Postcode": 2261
 },
 {
   "latitude": -32.9211521,
   "longitude": 151.7147985,
   "Charger type": "AC (level 2)",
   "Name": "The Executive Inn",
   "State": "NSW",
   "stations": 2,
   "Plug types": "Tesla (Type 2)",
   "Charging Network": "Tesla Destination",
   "Power (kW)": 22,
   "Hardware brand": "Tesla",
   "Address": "10 Rugby Rd, New Lambton NSW 2305, Australia",
   "Postcode": 2305
 },
 {
   "latitude": -32.8924328,
   "longitude": 151.7432109,
   "Charger type": "DC (level 3)",
   "Name": "The Gateway Inn Newcastle",
   "State": "NSW",
   "stations": 3,
   "Plug types": "Both CHAdeMO & CCS Combo 2/SAE",
   "Charging Network": "Tesla Destination",
   "Power (kW)": 22,
   "Hardware brand": "Tesla",
   "Address": "26 William St, Mayfield NSW 2304, Australia",
   "Postcode": 2304
 },
 {
   "latitude": -33.913447,
   "longitude": 151.0341269,
   "Charger type": "AC (level 2)",
   "Name": "The Highline Venue",
   "State": "NSW",
   "stations": 2,
   "Plug types": "J-1772",
   "Charging Network": "Tesla Destination",
   "Power (kW)": 22,
   "Hardware brand": "Tesla",
   "Address": "462 Chapel Rd, Bankstown NSW 2200, Australia",
   "Postcode": 2200
 },
 {
   "latitude": -33.7306381,
   "longitude": 150.9731012,
   "Charger type": "AC (level 2)",
   "Name": "The Hills Lodge",
   "State": "NSW",
   "stations": 1,
   "Plug types": "Tesla (Type 2)",
   "Charging Network": "Tesla Destination",
   "Power (kW)": 5,
   "Hardware brand": "",
   "Address": "1 Salisbury Rd, Castle Hill NSW 2154, Australia",
   "Postcode": 2154
 },
 {
   "latitude": -33.6774245,
   "longitude": 150.2815125,
   "Charger type": "AC (level 2)",
   "Name": "The Hydro Majestic Hotel Blue Mountains",
   "State": "NSW",
   "stations": 1,
   "Plug types": "Tesla (Type 2)",
   "Charging Network": "Tesla Destination",
   "Power (kW)": 22,
   "Hardware brand": "",
   "Address": "52-88 Great Western Hwy, Medlow Bath NSW 2780, Australia",
   "Postcode": 2780
 },
 {
   "latitude": -33.8605169,
   "longitude": 151.2034473,
   "Charger type": "AC (level 2)",
   "Name": "The Langham Hotel Sydney",
   "State": "NSW",
   "stations": 3,
   "Plug types": "Tesla (Type 2)",
   "Charging Network": "Tesla Destination",
   "Power (kW)": 22,
   "Hardware brand": "",
   "Address": "89-113 Kent St, Millers Point NSW 2000, Australia",
   "Postcode": 2000
 },
 {
   "latitude": -35.8557306,
   "longitude": 150.172716,
   "Charger type": "AC (level 2)",
   "Name": "The Lodge Broulee Motel",
   "State": "NSW",
   "stations": 2,
   "Plug types": "Tesla (Type 2)",
   "Charging Network": "Tesla Destination",
   "Power (kW)": 5,
   "Hardware brand": "Tesla",
   "Address": "18 Imlay St, Broulee NSW 2537, Australia",
   "Postcode": 2537
 },
 {
   "latitude": -32.7541516,
   "longitude": 151.3000422,
   "Charger type": "AC (level 2)",
   "Name": "The Longhouse Pokolbin",
   "State": "NSW",
   "stations": 2,
   "Plug types": "Tesla (Type 2)",
   "Charging Network": "Tesla Destination",
   "Power (kW)": 22,
   "Hardware brand": "Tesla",
   "Address": "385 Palmers Ln, Pokolbin NSW 2320, Australia",
   "Postcode": 2320
 },
 {
   "latitude": -33.930536,
   "longitude": 151.197518,
   "Charger type": "AC (level 2)",
   "Name": "The Mascot Eye Specialist Centre",
   "State": "NSW",
   "stations": 1,
   "Plug types": "Tesla (Type 2)",
   "Charging Network": "",
   "Power (kW)": null,
   "Hardware brand": "",
   "Address": "170 King Ln, Mascot NSW 2020, Australia",
   "Postcode": 2020
 },
 {
   "latitude": -30.3063515,
   "longitude": 153.1371698,
   "Charger type": "AC (level 2)",
   "Name": "The Observatory Holiday Apartments",
   "State": "NSW",
   "stations": 2,
   "Plug types": "Type 2",
   "Charging Network": "Tesla Destination",
   "Power (kW)": 4,
   "Hardware brand": "Tesla",
   "Address": "30-36 Camperdown St, Coffs Harbour NSW 2450, Australia",
   "Postcode": 2450
 },
 {
   "latitude": -31.4309607,
   "longitude": 152.918799,
   "Charger type": "AC (level 2)",
   "Name": "The Observatory Port Macquarie",
   "State": "NSW",
   "stations": 2,
   "Plug types": "Tesla (Type 2)",
   "Charging Network": "Tesla Destination",
   "Power (kW)": 6,
   "Hardware brand": "",
   "Address": "40 William St, Port Macquarie NSW 2444, Australia",
   "Postcode": 2444
 },
 {
   "latitude": -31.0982051,
   "longitude": 150.9405066,
   "Charger type": "AC (level 2)",
   "Name": "The Quality Hotel PowerHouse",
   "State": "NSW",
   "stations": 2,
   "Plug types": "Tesla (Type 2)",
   "Charging Network": "Tesla Destination",
   "Power (kW)": 22,
   "Hardware brand": "Tesla",
   "Address": "248 Armidale Rd, East Tamworth NSW 2340, Australia",
   "Postcode": 2340
 },
 {
   "latitude": -34.8090953,
   "longitude": 150.6404804,
   "Charger type": "AC (level 2)",
   "Name": "The Silos Estate",
   "State": "NSW",
   "stations": 2,
   "Plug types": "Type 2",
   "Charging Network": "Tesla Destination",
   "Power (kW)": 22,
   "Hardware brand": "Tesla",
   "Address": "640 Princes Hwy, Jaspers Brush NSW 2535, Australia",
   "Postcode": 2535
 },
 {
   "latitude": -32.5552209,
   "longitude": 149.5889888,
   "Charger type": "AC (level 2)",
   "Name": "The Zin House",
   "State": "NSW",
   "stations": 2,
   "Plug types": "Tesla (Type 2)",
   "Charging Network": "Tesla Destination",
   "Power (kW)": 22,
   "Hardware brand": "Tesla",
   "Address": "Tinja Ln, Eurunderee NSW 2850, Australia",
   "Postcode": 2850
 },
 {
   "latitude": -35.1029372,
   "longitude": 147.3688004,
   "Charger type": "AC (level 2)",
   "Name": "Thirsty Crow Brewery",
   "State": "NSW",
   "stations": 1,
   "Plug types": "Type 2",
   "Charging Network": "Tesla Destination",
   "Power (kW)": 8,
   "Hardware brand": "Tesla",
   "Address": "153 Fitzmaurice St, Wagga Wagga NSW 2650, Australia",
   "Postcode": 2650
 },
 {
   "latitude": -32.7839958,
   "longitude": 151.0815855,
   "Charger type": "AC (level 2)",
   "Name": "Thistledo Vineyard",
   "State": "NSW",
   "stations": 1,
   "Plug types": "Tesla (Type 2)",
   "Charging Network": "Tesla Destination",
   "Power (kW)": 6,
   "Hardware brand": "Tesla",
   "Address": "Thistledo Vineyard, 558 Wollombi Rd, Broke NSW 2330, Australia",
   "Postcode": 2330
 },
 {
   "latitude": -36.5041894,
   "longitude": 148.3062918,
   "Charger type": "DC (level 3)",
   "Name": "Thredbo Alpine Hotel",
   "State": "NSW",
   "stations": 1,
   "Plug types": "Both CHAdeMO & CCS Combo 2/SAE",
   "Charging Network": "Tesla Destination",
   "Power (kW)": 22,
   "Hardware brand": "Tesla",
   "Address": "S2 Mowamba Pl, Kosciuszko National Park NSW 2625, Australia",
   "Postcode": 2625
 },
 {
   "latitude": -33.2810752,
   "longitude": 149.0994223,
   "Charger type": "AC (level 2)",
   "Name": "Town Square Motel & Metropolitan Hotel",
   "State": "NSW",
   "stations": 2,
   "Plug types": "Tesla (Type 2)",
   "Charging Network": "Tesla Destination",
   "Power (kW)": 22,
   "Hardware brand": "Tesla",
   "Address": "246 Anson St, Orange NSW 2800, Australia",
   "Postcode": 2800
 },
 {
   "latitude": -33.8761055,
   "longitude": 151.1783737,
   "Charger type": "AC (level 2)",
   "Name": "Tramsheds Harold Park",
   "State": "NSW",
   "stations": 2,
   "Plug types": "Tesla (Type 2)",
   "Charging Network": "Tesla Destination",
   "Power (kW)": 22,
   "Hardware brand": "",
   "Address": "1 Dalgal Way, Forest Lodge NSW 2037, Australia",
   "Postcode": 2037
 },
 {
   "latitude": -35.2954431,
   "longitude": 148.2153619,
   "Charger type": "DC (level 3)",
   "Name": "Tumut River Brewing Co.",
   "State": "NSW",
   "stations": 2,
   "Plug types": "Both CHAdeMO & CCS Combo 2/SAE",
   "Charging Network": "Tesla Destination",
   "Power (kW)": 22,
   "Hardware brand": "Tesla",
   "Address": "1-5 Capper St, Tumut NSW 2720, Australia",
   "Postcode": 2720
 },
 {
   "latitude": -28.1767544,
   "longitude": 153.5407321,
   "Charger type": "DC (level 3)",
   "Name": "Tweed Heads Vegas Motel",
   "State": "NSW",
   "stations": 2,
   "Plug types": "Both CHAdeMO & CCS Combo 2/SAE",
   "Charging Network": "Tesla Destination",
   "Power (kW)": 14,
   "Hardware brand": "Tesla",
   "Address": "123 Wharf St, Tweed Heads NSW 2485, Australia",
   "Postcode": 2485
 },
 {
   "latitude": -33.1912931,
   "longitude": 148.5330477,
   "Charger type": "AC (level 2)",
   "Name": "Twisted River Wines",
   "State": "NSW",
   "stations": 1,
   "Plug types": "Type 2",
   "Charging Network": "Tesla Destination",
   "Power (kW)": 7,
   "Hardware brand": "",
   "Address": "6056 Henry Parkes Way, Manildra NSW 2865, Australia",
   "Postcode": 2865
 },
 {
   "latitude": -35.157577,
   "longitude": 147.4594566,
   "Charger type": "AC (level 2)",
   "Name": "Valet Park and Fly Wagga Airport",
   "State": "NSW",
   "stations": 1,
   "Plug types": "Tesla (Type 2)",
   "Charging Network": "Tesla Destination",
   "Power (kW)": 22,
   "Hardware brand": "Tesla",
   "Address": "Don Kendell Dr, Forest Hill NSW 2651, Australia",
   "Postcode": 2651
 },
 {
   "latitude": -34.8404055,
   "longitude": 149.6867208,
   "Charger type": "DC (level 3)",
   "Name": "Wakefield Park Raceway",
   "State": "NSW",
   "stations": 1,
   "Plug types": "Both CHAdeMO & CCS Combo 2/SAE",
   "Charging Network": "",
   "Power (kW)": null,
   "Hardware brand": "Tesla",
   "Address": "4770 Braidwood Rd, Tirrannaville NSW 2580, Australia",
   "Postcode": 2580
 },
 {
   "latitude": -33.8915695,
   "longitude": 151.2505012,
   "Charger type": "AC (level 2)",
   "Name": "Westfield Bondi Junction - Car Park P4 (Valet)",
   "State": "NSW",
   "stations": 4,
   "Plug types": "Tesla (Type 2)",
   "Charging Network": "Tesla Destination",
   "Power (kW)": 22,
   "Hardware brand": "",
   "Address": "500 Oxford St, Bondi Junction NSW 2022, Australia",
   "Postcode": 2022
 },
 {
   "latitude": -34.0355512,
   "longitude": 151.1006368,
   "Charger type": "AC (level 2)",
   "Name": "Westfield Miranda",
   "State": "NSW",
   "stations": 2,
   "Plug types": "Type 2",
   "Charging Network": "Tesla Destination",
   "Power (kW)": 22,
   "Hardware brand": "",
   "Address": "600 Kingsway, Miranda NSW 2228, Australia",
   "Postcode": 2228
 },
 {
   "latitude": -33.869167,
   "longitude": 151.2087416,
   "Charger type": "AC (level 2)",
   "Name": "Westfield Sydney Central Plaza",
   "State": "NSW",
   "stations": 2,
   "Plug types": "Tesla (Type 2)",
   "Charging Network": "Tesla Destination",
   "Power (kW)": 22,
   "Hardware brand": "",
   "Address": "135 King St, Sydney NSW 2000, Australia",
   "Postcode": 2000
 },
 {
   "latitude": -33.7658596,
   "longitude": 151.2648571,
   "Charger type": "AC (level 2)",
   "Name": "Westfield Warringah Mall Valet",
   "State": "NSW",
   "stations": 4,
   "Plug types": "Tesla (Type 2)",
   "Charging Network": "Tesla Destination",
   "Power (kW)": 22,
   "Hardware brand": "Tesla",
   "Address": "145 Old Pittwater Rd, Brookvale NSW 2100, Australia",
   "Postcode": 2100
 },
 {
   "latitude": -32.9503524,
   "longitude": 151.1820861,
   "Charger type": "AC (level 2)",
   "Name": "Wild Edge Retreat",
   "State": "NSW",
   "stations": 2,
   "Plug types": "Type 2",
   "Charging Network": "Tesla Destination",
   "Power (kW)": 6,
   "Hardware brand": "Tesla",
   "Address": "Wild Edge Retreat, 260 Craft Rd, Wollombi NSW 2325, Australia",
   "Postcode": 2325
 },
 {
   "latitude": -33.8799521,
   "longitude": 151.2034355,
   "Charger type": "AC (level 2)",
   "Name": "Wilson Parking Market City",
   "State": "NSW",
   "stations": 6,
   "Plug types": "Tesla (Type 2)",
   "Charging Network": "Tesla Destination",
   "Power (kW)": 22,
   "Hardware brand": "",
   "Address": "9-13 Hay St, Haymarket NSW 2000, Australia",
   "Postcode": 2000
 },
 {
   "latitude": -32.5968978,
   "longitude": 149.5878482,
   "Charger type": "AC (level 2)",
   "Name": "Winning Post Motor Inn",
   "State": "NSW",
   "stations": 2,
   "Plug types": "Type 2",
   "Charging Network": "Tesla Destination",
   "Power (kW)": 22,
   "Hardware brand": "",
   "Address": "101 Church St, Mudgee NSW 2850, Australia",
   "Postcode": 2850
 },
 {
   "latitude": -34.4234883,
   "longitude": 150.8922583,
   "Charger type": "AC (level 2)",
   "Name": "Wollongong Central - P1 Basement",
   "State": "NSW",
   "stations": 2,
   "Plug types": "Tesla (Type 2)",
   "Charging Network": "Tesla Destination",
   "Power (kW)": 22,
   "Hardware brand": "",
   "Address": "71 Market St, Wollongong NSW 2500, Australia",
   "Postcode": 2500
 },
 {
   "latitude": -34.841875,
   "longitude": 148.9126594,
   "Charger type": "AC (level 2)",
   "Name": "Yass Soldiers Club",
   "State": "NSW",
   "stations": 2,
   "Plug types": "Type 2",
   "Charging Network": "Tesla Destination",
   "Power (kW)": 22,
   "Hardware brand": "Tesla",
   "Address": "86 Meehan St, Yass NSW 2582, Australia",
   "Postcode": 2582
 },
 {
   "latitude": -34.8404055,
   "longitude": 149.6867208,
   "Charger type": "AC (level 2)",
   "Name": "Wakefield Park Raceway",
   "State": "NSW",
   "stations": 1,
   "Plug types": "Tesla (Type 2)",
   "Charging Network": "",
   "Power (kW)": null,
   "Hardware brand": "Tesla",
   "Address": "4770 Braidwood Rd, Tirrannaville NSW 2580, Australia",
   "Postcode": 2580
 },
 {
   "latitude": -33.8705978,
   "longitude": 151.203956,
   "Charger type": "AC (level 2)",
   "Name": "Allianz Centre - Secure Parking",
   "State": "NSW",
   "stations": 4,
   "Plug types": "J-1772",
   "Charging Network": "Everty",
   "Power (kW)": 22,
   "Hardware brand": "",
   "Address": "186 Sussex St, Sydney NSW 2000, Australia",
   "Postcode": 2000
 },
 {
   "latitude": -33.7964104,
   "longitude": 151.1836091,
   "Charger type": "AC (level 2)",
   "Name": "Anderson Street Parking/Charging",
   "State": "NSW",
   "stations": 2,
   "Plug types": "Tesla (Type 2)",
   "Charging Network": "Chargefox",
   "Power (kW)": 22,
   "Hardware brand": "",
   "Address": "370 Anderson St, Chatswood NSW 2067, Australia",
   "Postcode": 2067
 },
 {
   "latitude": -33.4458862,
   "longitude": 149.1852109,
   "Charger type": "AC (level 2)",
   "Name": "Angullong Wine Tasting Room",
   "State": "NSW",
   "stations": 1,
   "Plug types": "J-1772",
   "Charging Network": "",
   "Power (kW)": null,
   "Hardware brand": "",
   "Address": "37 Victoria St, Millthorpe NSW 2798, Australia",
   "Postcode": 2798
 },
 {
   "latitude": -34.6726828,
   "longitude": 150.2122963,
   "Charger type": "AC (level 2)",
   "Name": "Australia Post - Penrose CPA",
   "State": "NSW",
   "stations": 1,
   "Plug types": "Tesla (Type 2)",
   "Charging Network": "",
   "Power (kW)": null,
   "Hardware brand": "",
   "Address": "901 Penrose Rd, Penrose NSW 2579, Australia",
   "Postcode": 2579
 },
 {
   "latitude": -31.2731036,
   "longitude": 149.2792177,
   "Charger type": "AC (level 2)",
   "Name": "Barron's Tyre & Mechanical",
   "State": "NSW",
   "stations": 1,
   "Plug types": "J-1772",
   "Charging Network": "",
   "Power (kW)": null,
   "Hardware brand": "",
   "Address": "76 Dalgarno St, Coonabarabran NSW 2357, Australia",
   "Postcode": 2357
 },
 {
   "latitude": -29.4753381,
   "longitude": 149.8456657,
   "Charger type": "AC (level 2)",
   "Name": "Baths Motel",
   "State": "NSW",
   "stations": 1,
   "Plug types": "Tesla (Type 2)",
   "Charging Network": "Everty",
   "Power (kW)": 7,
   "Hardware brand": "Tesla",
   "Address": "339 Warialda St, Moree NSW 2400, Australia",
   "Postcode": 2400
 },
 {
   "latitude": -33.4259189,
   "longitude": 149.5817468,
   "Charger type": "AC (level 2)",
   "Name": "Bathurst Rail Museum",
   "State": "NSW",
   "stations": 1,
   "Plug types": "J-1772",
   "Charging Network": "",
   "Power (kW)": null,
   "Hardware brand": "",
   "Address": "126 Havannah St, Bathurst NSW 2795, Australia",
   "Postcode": 2795
 },
 {
   "latitude": -33.7632734,
   "longitude": 151.0042477,
   "Charger type": "AC (level 2)",
   "Name": "Baulkham Hills Sports Club",
   "State": "NSW",
   "stations": 1,
   "Plug types": "Tesla (Type 2)",
   "Charging Network": "",
   "Power (kW)": null,
   "Hardware brand": "",
   "Address": "11 Renown Rd, Baulkham Hills NSW 2153, Australia",
   "Postcode": 2153
 },
 {
   "latitude": -33.7365294,
   "longitude": 150.9485142,
   "Charger type": "AC (level 2)",
   "Name": "Bella Vista Hotel",
   "State": "NSW",
   "stations": 1,
   "Plug types": "J-1772",
   "Charging Network": "",
   "Power (kW)": null,
   "Hardware brand": "",
   "Address": "13-15 Lexington Dr, Bella Vista NSW 2153, Australia",
   "Postcode": 2153
 },
 {
   "latitude": -33.8555224,
   "longitude": 151.1621054,
   "Charger type": "AC (level 2)",
   "Name": "Birkenhead Point Outlet Centre",
   "State": "NSW",
   "stations": 4,
   "Plug types": "Tesla (Type 2)",
   "Charging Network": "Chargefox",
   "Power (kW)": null,
   "Hardware brand": "",
   "Address": "19 Roseby St, Drummoyne NSW 2047, Australia",
   "Postcode": 2047
 },
 {
   "latitude": -33.7702867,
   "longitude": 150.9059341,
   "Charger type": "AC (level 2)",
   "Name": "Blacktown Westpoint Shopping Centre",
   "State": "NSW",
   "stations": 8,
   "Plug types": "J-1772",
   "Charging Network": "Chargefox",
   "Power (kW)": null,
   "Hardware brand": "",
   "Address": "17 Patrick St, Blacktown NSW 2148, Australia",
   "Postcode": 2148
 },
 {
   "latitude": -33.9380083,
   "longitude": 151.1924793,
   "Charger type": "AC (level 2)",
   "Name": "Blue Emu Car Park",
   "State": "NSW",
   "stations": 2,
   "Plug types": "Tesla (Type 2)",
   "Charging Network": "",
   "Power (kW)": null,
   "Hardware brand": "",
   "Address": "Ross Smith Ave, Mascot NSW 2020, Australia",
   "Postcode": 2020
 },
 {
   "latitude": -33.8900918,
   "longitude": 151.2770796,
   "Charger type": "AC (level 2)",
   "Name": "Bondi Beach Park",
   "State": "NSW",
   "stations": 2,
   "Plug types": "J-1772",
   "Charging Network": "Chargefox",
   "Power (kW)": null,
   "Hardware brand": "",
   "Address": "2 Queen Elizabeth Dr, Bondi Beach NSW 2026, Australia",
   "Postcode": 2026
 },
 {
   "latitude": -33.855129,
   "longitude": 151.078781,
   "Charger type": "AC (level 2)",
   "Name": "Bressington Park Carpark",
   "State": "NSW",
   "stations": 1,
   "Plug types": "Tesla (Type 2)",
   "Charging Network": "",
   "Power (kW)": 22,
   "Hardware brand": "",
   "Address": "Underwood Road opp DFO Homebush, Homebush NSW 2140, Australia",
   "Postcode": 2140
 },
 {
   "latitude": -33.92008,
   "longitude": 151.2437997,
   "Charger type": "AC (level 2)",
   "Name": "Brigidine College Wilson Car Park",
   "State": "NSW",
   "stations": 2,
   "Plug types": "Tesla (Type 2)",
   "Charging Network": "",
   "Power (kW)": null,
   "Hardware brand": "",
   "Address": "49 St Pauls St, Randwick NSW 2031, Australia",
   "Postcode": 2031
 },
 {
   "latitude": -33.8827784,
   "longitude": 151.1948135,
   "Charger type": "AC (level 2)",
   "Name": "Broadway Shopping Centre",
   "State": "NSW",
   "stations": 4,
   "Plug types": "J-1772",
   "Charging Network": "Chargefox",
   "Power (kW)": null,
   "Hardware brand": "",
   "Address": "31 Bay St, Glebe NSW 2037, Australia",
   "Postcode": 2037
 },
 {
   "latitude": -28.5548759,
   "longitude": 153.5024149,
   "Charger type": "AC (level 2)",
   "Name": "Byron Shire Carpark",
   "State": "NSW",
   "stations": 2,
   "Plug types": "Tesla (Type 2)",
   "Charging Network": "EVUp",
   "Power (kW)": null,
   "Hardware brand": "",
   "Address": "70-90 Station St, Mullumbimby NSW 2482, Australia",
   "Postcode": 2482
 },
 {
   "latitude": -34.0424537,
   "longitude": 151.0489528,
   "Charger type": "AC (level 2)",
   "Name": "Cafe Loftus",
   "State": "NSW",
   "stations": 1,
   "Plug types": "J-1772",
   "Charging Network": "",
   "Power (kW)": null,
   "Hardware brand": "",
   "Address": "71 National Ave, Loftus NSW 2232, Australia",
   "Postcode": 2232
 },
 {
   "latitude": -32.9164148,
   "longitude": 151.597277,
   "Charger type": "AC (level 2)",
   "Name": "Cameron Park Plaza",
   "State": "NSW",
   "stations": 4,
   "Plug types": "Tesla (Type 2)",
   "Charging Network": "Chargefox",
   "Power (kW)": null,
   "Hardware brand": "",
   "Address": "100 George Booth Dr, Cameron Park NSW 2285, Australia",
   "Postcode": 2285
 },
 {
   "latitude": -33.9076689,
   "longitude": 151.1039558,
   "Charger type": "AC (level 2)",
   "Name": "Canterbury Bankstown Council",
   "State": "NSW",
   "stations": 2,
   "Plug types": "Tesla (Type 2)",
   "Charging Network": "",
   "Power (kW)": null,
   "Hardware brand": "",
   "Address": "21 Shakespeare St, Campsie NSW 2194, Australia",
   "Postcode": 2194
 },
 {
   "latitude": -28.8624736,
   "longitude": 153.0493516,
   "Charger type": "AC (level 2)",
   "Name": "Casino RSM",
   "State": "NSW",
   "stations": 2,
   "Plug types": "Type 2",
   "Charging Network": "EVUp",
   "Power (kW)": 22,
   "Hardware brand": "",
   "Address": "162 Canterbury St, Casino NSW 2470, Australia",
   "Postcode": 2470
 },
 {
   "latitude": -33.1047393,
   "longitude": 151.647899,
   "Charger type": "DC (level 3)",
   "Name": "Caves Coastal Bar and Bungalows",
   "State": "NSW",
   "stations": 4,
   "Plug types": "Both CHAdeMO & CCS Combo 2/SAE",
   "Charging Network": "",
   "Power (kW)": null,
   "Hardware brand": "",
   "Address": "3/3 Mawson Cl, Caves Beach NSW 2281, Australia",
   "Postcode": 2281
 },
 {
   "latitude": -33.9117284,
   "longitude": 151.1174279,
   "Charger type": "AC (level 2)",
   "Name": "Charles St Parking/Charging",
   "State": "NSW",
   "stations": 1,
   "Plug types": "Tesla (Type 2)",
   "Charging Network": "",
   "Power (kW)": null,
   "Hardware brand": "",
   "Address": "10B Charles St, Canterbury NSW 2193, Australia",
   "Postcode": 2193
 },
 {
   "latitude": -33.7209507,
   "longitude": 151.043454,
   "Charger type": "AC (level 2)",
   "Name": "Cherrybrook Village",
   "State": "NSW",
   "stations": 2,
   "Plug types": "Tesla (Type 2)",
   "Charging Network": "Chargefox",
   "Power (kW)": null,
   "Hardware brand": "",
   "Address": "Shop 42/47 Shepherds Dr, Cherrybrook NSW 2126, Australia",
   "Postcode": 2126
 },
 {
   "latitude": -33.8591236,
   "longitude": 151.2079349,
   "Charger type": "AC (level 2)",
   "Name": "Clocktower",
   "State": "NSW",
   "stations": 2,
   "Plug types": "Tesla (Type 2)",
   "Charging Network": "",
   "Power (kW)": null,
   "Hardware brand": "",
   "Address": "5030 Argyle St, The Rocks NSW 2000, Australia",
   "Postcode": 2000
 },
 {
   "latitude": -32.6701592,
   "longitude": 151.35064,
   "Charger type": "AC (level 2)",
   "Name": "Coles Huntlee",
   "State": "NSW",
   "stations": 2,
   "Plug types": "Type 2",
   "Charging Network": "Chargefox",
   "Power (kW)": null,
   "Hardware brand": "",
   "Address": "22 Empire St, Branxton NSW 2335, Australia",
   "Postcode": 2335
 },
 {
   "latitude": -33.919164,
   "longitude": 151.2548881,
   "Charger type": "AC (level 2)",
   "Name": "Coogee Eastward Senior Citizens Hall",
   "State": "NSW",
   "stations": 2,
   "Plug types": "J-1772",
   "Charging Network": "Chargefox",
   "Power (kW)": null,
   "Hardware brand": "",
   "Address": "97R Brook St, Coogee NSW 2034, Australia",
   "Postcode": 2034
 },
 {
   "latitude": -34.0946142,
   "longitude": 142.0388599,
   "Charger type": "AC (level 2)",
   "Name": "Coomealla Motel",
   "State": "NSW",
   "stations": 1,
   "Plug types": "Type 2",
   "Charging Network": "",
   "Power (kW)": null,
   "Hardware brand": "",
   "Address": "1 Matong St, Dareton NSW 2717, Australia",
   "Postcode": 2717
 },
 {
   "latitude": -32.8846225,
   "longitude": 151.7283475,
   "Charger type": "AC (level 2)",
   "Name": "CSIRO Energy Centre",
   "State": "NSW",
   "stations": 1,
   "Plug types": "Tesla (Type 2)",
   "Charging Network": "",
   "Power (kW)": null,
   "Hardware brand": "",
   "Address": "10 Murray Dwyer Cct, Mayfield West NSW 2304, Australia",
   "Postcode": 2304
 },
 {
   "latitude": -33.8712161,
   "longitude": 151.203816,
   "Charger type": "DC (level 3)",
   "Name": "Darling Park - Wilson Parking",
   "State": "NSW",
   "stations": 2,
   "Plug types": "Tesla (Supercharger)",
   "Charging Network": "Chargefox",
   "Power (kW)": null,
   "Hardware brand": "",
   "Address": "201 Sussex St, Sydney NSW 2000, Australia",
   "Postcode": 2000
 },
 {
   "latitude": -33.950653,
   "longitude": 151.2388365,
   "Charger type": "AC (level 2)",
   "Name": "Des Renford Leisure Centre",
   "State": "NSW",
   "stations": 2,
   "Plug types": "J-1772",
   "Charging Network": "Chargefox",
   "Power (kW)": null,
   "Hardware brand": "",
   "Address": "Jersey Rd & Robey Street, Maroubra NSW 2035, Australia",
   "Postcode": 2035
 },
 {
   "latitude": -33.9052704,
   "longitude": 151.2130888,
   "Charger type": "AC (level 2)",
   "Name": "East Village Shopping Centre",
   "State": "NSW",
   "stations": 4,
   "Plug types": "J-1772",
   "Charging Network": "Chargefox",
   "Power (kW)": 22,
   "Hardware brand": "Tritium",
   "Address": "4 Defries Ave, Zetland NSW 2017, Australia",
   "Postcode": 2017
 },
 {
   "latitude": -33.7839196,
   "longitude": 150.8525994,
   "Charger type": "AC (level 2)",
   "Name": "Eastern Creek Quarter",
   "State": "NSW",
   "stations": 4,
   "Plug types": "Tesla (Type 2)",
   "Charging Network": "Chargefox",
   "Power (kW)": null,
   "Hardware brand": "",
   "Address": "159 Rooty Hill Rd S, Eastern Creek NSW 2766, Australia",
   "Postcode": 2766
 },
 {
   "latitude": -33.9697113,
   "longitude": 150.8580757,
   "Charger type": "AC (level 2)",
   "Name": "Ed Square Town Centre",
   "State": "NSW",
   "stations": 6,
   "Plug types": "J-1772",
   "Charging Network": "Chargefox",
   "Power (kW)": null,
   "Hardware brand": "",
   "Address": "52 Soldiers Parade, Edmondson Park NSW 2174, Australia",
   "Postcode": 2174
 },
 {
   "latitude": -33.9964797,
   "longitude": 150.7924412,
   "Charger type": "AC (level 2)",
   "Name": "Emerald Hills Shopping Village",
   "State": "NSW",
   "stations": 2,
   "Plug types": "Tesla (Type 2)",
   "Charging Network": "",
   "Power (kW)": null,
   "Hardware brand": "",
   "Address": "5 Emerald Hills Blvd, Leppington NSW 2179, Australia",
   "Postcode": 2179
 },
 {
   "latitude": -28.8073752,
   "longitude": 153.5823758,
   "Charger type": "AC (level 2)",
   "Name": "Epiq Market Shopping Center",
   "State": "NSW",
   "stations": 2,
   "Plug types": "Tesla (Type 2)",
   "Charging Network": "Chargefox",
   "Power (kW)": null,
   "Hardware brand": "",
   "Address": "5 Snapper Dr, Lennox Head NSW 2478, Australia",
   "Postcode": 2478
 },
 {
   "latitude": -34.5801684,
   "longitude": 142.7433766,
   "Charger type": "AC (level 2)",
   "Name": "Euston Bowling & Recreation Club",
   "State": "NSW",
   "stations": 1,
   "Plug types": "Tesla (Type 2)",
   "Charging Network": "",
   "Power (kW)": 22,
   "Hardware brand": "",
   "Address": "2/28 Nixon St, Euston NSW 2737, Australia",
   "Postcode": 2737
 },
 {
   "latitude": -33.7692352,
   "longitude": 150.9469445,
   "Charger type": "DC (level 3)",
   "Name": "evse.com.au",
   "State": "NSW",
   "stations": 1,
   "Plug types": "Both CHAdeMO & CCS Combo 2/SAE",
   "Charging Network": "",
   "Power (kW)": null,
   "Hardware brand": "",
   "Address": "14/13 Brumby St, Seven Hills NSW 2147, Australia",
   "Postcode": 2147
 },
 {
   "latitude": -35.8439249,
   "longitude": 150.1713257,
   "Charger type": "AC (level 2)",
   "Name": "EVUp at Train St Central",
   "State": "NSW",
   "stations": 1,
   "Plug types": "Tesla (Type 2)",
   "Charging Network": "EVUp",
   "Power (kW)": null,
   "Hardware brand": "",
   "Address": "53 Train St, Broulee NSW 2537, Australia",
   "Postcode": 2537
 },
 {
   "latitude": -34.4366153,
   "longitude": 150.8632982,
   "Charger type": "DC (level 3)",
   "Name": "Figtree Grove Shopping Centre",
   "State": "NSW",
   "stations": 2,
   "Plug types": "Tesla (Supercharger)",
   "Charging Network": "Chargefox",
   "Power (kW)": null,
   "Hardware brand": "",
   "Address": "19 Princes Hwy, Figtree NSW 2525, Australia",
   "Postcode": 2525
 },
 {
   "latitude": -35.0644143,
   "longitude": 148.1072521,
   "Charger type": "DC (level 3)",
   "Name": "Flash Jacks of Gundagai",
   "State": "NSW",
   "stations": 2,
   "Plug types": "Both CHAdeMO & CCS Combo 2/SAE",
   "Charging Network": "",
   "Power (kW)": 11,
   "Hardware brand": "",
   "Address": "14 Homer St, Gundagai NSW 2722, Australia",
   "Postcode": 2722
 },
 {
   "latitude": -29.7381427,
   "longitude": 151.7376761,
   "Charger type": "DC (level 3)",
   "Name": "Glen Innes Visitor Information Centre",
   "State": "NSW",
   "stations": 1,
   "Plug types": "Both CHAdeMO & CCS Combo 2/SAE",
   "Charging Network": "EVUp",
   "Power (kW)": null,
   "Hardware brand": "Tesla",
   "Address": "152 Church St, Glen Innes NSW 2370, Australia",
   "Postcode": 2370
 },
 {
   "latitude": -33.8406884,
   "longitude": 151.2075778,
   "Charger type": "AC (level 2)",
   "Name": "Greenwood Plaza",
   "State": "NSW",
   "stations": 4,
   "Plug types": "Tesla (Type 2)",
   "Charging Network": "Chargefox",
   "Power (kW)": null,
   "Hardware brand": "Tesla",
   "Address": "36 Blue St, North Sydney NSW 2060, Australia",
   "Postcode": 2060
 },
 {
   "latitude": -33.8629649,
   "longitude": 151.207252,
   "Charger type": "AC (level 2)",
   "Name": "Grosvenor Place (7 Essex St)",
   "State": "NSW",
   "stations": 4,
   "Plug types": "Tesla (Type 2)",
   "Charging Network": "",
   "Power (kW)": null,
   "Hardware brand": "",
   "Address": "225 George St, Sydney NSW 2000, Australia",
   "Postcode": 2000
 },
 {
   "latitude": -28.6315079,
   "longitude": 153.5822565,
   "Charger type": "AC (level 2)",
   "Name": "Habitat Byron Bay",
   "State": "NSW",
   "stations": 3,
   "Plug types": "Tesla (Type 2)",
   "Charging Network": "Chargefox",
   "Power (kW)": null,
   "Hardware brand": "",
   "Address": "1 Porter St, Byron Bay NSW 2481, Australia",
   "Postcode": 2481
 },
 {
   "latitude": -33.870915,
   "longitude": 151.1974125,
   "Charger type": "AC (level 2)",
   "Name": "Harbourside Wilson Parking",
   "State": "NSW",
   "stations": 2,
   "Plug types": "Type 2",
   "Charging Network": "",
   "Power (kW)": 22,
   "Hardware brand": "",
   "Address": "59 Murray St, Sydney NSW 2000, Australia",
   "Postcode": 2000
 },
 {
   "latitude": -33.8251258,
   "longitude": 151.2021849,
   "Charger type": "AC (level 2)",
   "Name": "Holtermann St Carpark",
   "State": "NSW",
   "stations": 2,
   "Plug types": "Tesla (Type 2)",
   "Charging Network": "",
   "Power (kW)": null,
   "Hardware brand": "",
   "Address": "29 Holtermann St, Crows Nest NSW 2065, Australia",
   "Postcode": 2065
 },
 {
   "latitude": -33.8244407,
   "longitude": 151.1998883,
   "Charger type": "AC (level 2)",
   "Name": "Hume St Carpark",
   "State": "NSW",
   "stations": 2,
   "Plug types": "Type 2",
   "Charging Network": "",
   "Power (kW)": null,
   "Hardware brand": "",
   "Address": "44 Hume St, Crows Nest NSW 2065, Australia",
   "Postcode": 2065
 },
 {
   "latitude": -32.8780102,
   "longitude": 151.6968309,
   "Charger type": "AC (level 2)",
   "Name": "Hunter Wetlands Centre",
   "State": "NSW",
   "stations": 1,
   "Plug types": "Tesla (Type 2)",
   "Charging Network": "",
   "Power (kW)": null,
   "Hardware brand": "",
   "Address": "412 Sandgate Rd, Shortland NSW 2307, Australia",
   "Postcode": 2307
 },
 {
   "latitude": -33.7640894,
   "longitude": 151.2707929,
   "Charger type": "AC (level 2)",
   "Name": "Hyundai Brookvale Dealership",
   "State": "NSW",
   "stations": 1,
   "Plug types": "Tesla (Type 2)",
   "Charging Network": "",
   "Power (kW)": null,
   "Hardware brand": "",
   "Address": "493 Pittwater Rd, Brookvale NSW 2100, Australia",
   "Postcode": 2100
 },
 {
   "latitude": -33.8628857,
   "longitude": 151.2123616,
   "Charger type": "AC (level 2)",
   "Name": "Intercontinental Hotel",
   "State": "NSW",
   "stations": 1,
   "Plug types": "Tesla (Type 2)",
   "Charging Network": "Chargefox",
   "Power (kW)": null,
   "Hardware brand": "",
   "Address": "117 Macquarie St, Sydney NSW 2000, Australia",
   "Postcode": 2000
 },
 {
   "latitude": -33.7021237,
   "longitude": 150.9135277,
   "Charger type": "DC (level 3)",
   "Name": "Jonas Bradley Park",
   "State": "NSW",
   "stations": 1,
   "Plug types": "Both CHAdeMO & CCS Combo 2/SAE",
   "Charging Network": "Chargefox",
   "Power (kW)": null,
   "Hardware brand": "",
   "Address": "158 The Ponds Blvd, The Ponds NSW 2769, Australia",
   "Postcode": 2769
 },
 {
   "latitude": -32.734869,
   "longitude": 151.261453,
   "Charger type": "AC (level 2)",
   "Name": "Keith Tulloch Winery",
   "State": "NSW",
   "stations": 1,
   "Plug types": "Tesla (Type 2)",
   "Charging Network": "",
   "Power (kW)": null,
   "Hardware brand": "",
   "Address": "989 Hermitage Rd, Pokolbin NSW 2320, Australia",
   "Postcode": 2320
 },
 {
   "latitude": -33.7515351,
   "longitude": 151.2441705,
   "Charger type": "AC (level 2)",
   "Name": "KFC Frenchs Forest",
   "State": "NSW",
   "stations": 1,
   "Plug types": "Tesla (Type 2)",
   "Charging Network": "",
   "Power (kW)": null,
   "Hardware brand": "",
   "Address": "20 Frenchs Forest Rd E, Frenchs Forest NSW 2086, Australia",
   "Postcode": 2086
 },
 {
   "latitude": -33.8783925,
   "longitude": 151.2439428,
   "Charger type": "AC (level 2)",
   "Name": "Kiaora Place Shopping Centre",
   "State": "NSW",
   "stations": 2,
   "Plug types": "Tesla (Type 2)",
   "Charging Network": "Chargefox",
   "Power (kW)": null,
   "Hardware brand": "",
   "Address": "1 Kiaora Rd, Double Bay NSW 2028, Australia",
   "Postcode": 2028
 },
 {
   "latitude": -28.2555425,
   "longitude": 153.5749473,
   "Charger type": "AC (level 2)",
   "Name": "Kingscliff Shopping Centre",
   "State": "NSW",
   "stations": 1,
   "Plug types": "J-1772",
   "Charging Network": "Chargefox",
   "Power (kW)": null,
   "Hardware brand": "",
   "Address": "32 Pearl St, Kingscliff NSW 2487, Australia",
   "Postcode": 2487
 },
 {
   "latitude": -32.9600691,
   "longitude": 151.6236683,
   "Charger type": "AC (level 2)",
   "Name": "Lake Macquarie Council",
   "State": "NSW",
   "stations": 1,
   "Plug types": "Tesla (Type 2)",
   "Charging Network": "Chargefox",
   "Power (kW)": null,
   "Hardware brand": "",
   "Address": "126-138 Main Rd, Speers Point NSW 2284, Australia",
   "Postcode": 2284
 },
 {
   "latitude": -32.929377,
   "longitude": 151.7719625,
   "Charger type": "AC (level 2)",
   "Name": "Laman St Parking/Charging",
   "State": "NSW",
   "stations": 2,
   "Plug types": "Tesla (Type 2)",
   "Charging Network": "Chargefox",
   "Power (kW)": null,
   "Hardware brand": "",
   "Address": "25 Laman St, Cooks Hill NSW 2300, Australia",
   "Postcode": 2300
 },
 {
   "latitude": -33.8151643,
   "longitude": 151.1691303,
   "Charger type": "AC (level 2)",
   "Name": "Lane Cove Market Square Car Park",
   "State": "NSW",
   "stations": 5,
   "Plug types": "Tesla (Type 2)",
   "Charging Network": "",
   "Power (kW)": null,
   "Hardware brand": "",
   "Address": "28 Burns Bay Rd, Lane Cove NSW 2066, Australia",
   "Postcode": 2066
 },
 {
   "latitude": -32.7617363,
   "longitude": 152.0828909,
   "Charger type": "AC (level 2)",
   "Name": "Latitude One",
   "State": "NSW",
   "stations": 2,
   "Plug types": "Tesla (Type 2)",
   "Charging Network": "",
   "Power (kW)": 22,
   "Hardware brand": "",
   "Address": "Latitude Dr, Anna Bay NSW 2316, Australia",
   "Postcode": 2316
 },
 {
   "latitude": -33.8135344,
   "longitude": 151.1715451,
   "Charger type": "AC (level 2)",
   "Name": "Little Street Car Park",
   "State": "NSW",
   "stations": 4,
   "Plug types": "Tesla (Type 2)",
   "Charging Network": "",
   "Power (kW)": null,
   "Hardware brand": "",
   "Address": "2 Little St, Lane Cove North NSW 2066, Australia",
   "Postcode": 2066
 },
 {
   "latitude": -34.0556271,
   "longitude": 150.771849,
   "Charger type": "AC (level 2)",
   "Name": "Macarthur Centre for Sustainable Living",
   "State": "NSW",
   "stations": 2,
   "Plug types": "Type 2",
   "Charging Network": "Chargefox",
   "Power (kW)": null,
   "Hardware brand": "",
   "Address": "1 Mount Annan Dr, Mount Annan NSW 2567, Australia",
   "Postcode": 2567
 },
 {
   "latitude": -33.7738237,
   "longitude": 151.1126498,
   "Charger type": "AC (level 2)",
   "Name": "Macquarie University",
   "State": "NSW",
   "stations": 6,
   "Plug types": "Tesla (Type 2)",
   "Charging Network": "",
   "Power (kW)": 22,
   "Hardware brand": "",
   "Address": "Balaclava Rd, Macquarie Park NSW 2109, Australia",
   "Postcode": 2109
 },
 {
   "latitude": -33.8245423,
   "longitude": 151.0789793,
   "Charger type": "AC (level 2)",
   "Name": "Marina Square Shopping Centre Wentworth Point",
   "State": "NSW",
   "stations": 2,
   "Plug types": "J-1772",
   "Charging Network": "",
   "Power (kW)": null,
   "Hardware brand": "",
   "Address": "5 Footbridge Bvd, Sydney Olympic Park NSW 2127, Australia",
   "Postcode": 2127
 },
 {
   "latitude": -33.7716336,
   "longitude": 150.9086078,
   "Charger type": "AC (level 2)",
   "Name": "Max Webber Library",
   "State": "NSW",
   "stations": 2,
   "Plug types": "Tesla (Type 2)",
   "Charging Network": "",
   "Power (kW)": null,
   "Hardware brand": "",
   "Address": "62 Flushcombe Rd, Blacktown NSW 2148, Australia",
   "Postcode": 2148
 },
 {
   "latitude": -33.6996291,
   "longitude": 150.9576895,
   "Charger type": "AC (level 2)",
   "Name": "McDonald's",
   "State": "NSW",
   "stations": 2,
   "Plug types": "Type 2",
   "Charging Network": "Chargefox",
   "Power (kW)": null,
   "Hardware brand": "",
   "Address": "133 Samantha Riley Dr, Kellyville NSW 2155, Australia",
   "Postcode": 2155
 },
 {
   "latitude": -33.6958229,
   "longitude": 151.0315945,
   "Charger type": "AC (level 2)",
   "Name": "McDonald's Dural",
   "State": "NSW",
   "stations": 2,
   "Plug types": "Tesla (Type 2)",
   "Charging Network": "Chargefox",
   "Power (kW)": null,
   "Hardware brand": "",
   "Address": "823 Old Northern Rd, Dural NSW 2158, Australia",
   "Postcode": 2158
 },
 {
   "latitude": -28.6470279,
   "longitude": 153.6124725,
   "Charger type": "AC (level 2)",
   "Name": "Mercato Shopping Centre",
   "State": "NSW",
   "stations": 8,
   "Plug types": "Type 2",
   "Charging Network": "Chargefox",
   "Power (kW)": null,
   "Hardware brand": "",
   "Address": "106 Jonson St, Byron Bay NSW 2481, Australia",
   "Postcode": 2481
 },
 {
   "latitude": -36.0959078,
   "longitude": 150.0511597,
   "Charger type": "AC (level 2)",
   "Name": "Micro Energy Systems Australia",
   "State": "NSW",
   "stations": 1,
   "Plug types": "Tesla (Type 2)",
   "Charging Network": "ChargePoint",
   "Power (kW)": null,
   "Hardware brand": "",
   "Address": "147 Princes Hwy, Bodalla NSW 2545, Australia",
   "Postcode": 2545
 },
 {
   "latitude": -33.8924759,
   "longitude": 151.2461293,
   "Charger type": "AC (level 2)",
   "Name": "Mill Hill Centre",
   "State": "NSW",
   "stations": 2,
   "Plug types": "Type 2",
   "Charging Network": "Chargefox",
   "Power (kW)": null,
   "Hardware brand": "",
   "Address": "31 Spring St, Bondi Junction NSW 2022, Australia",
   "Postcode": 2022
 },
 {
   "latitude": -34.4989528,
   "longitude": 150.4815589,
   "Charger type": "AC (level 2)",
   "Name": "Milton Park Country House",
   "State": "NSW",
   "stations": 2,
   "Plug types": "Tesla (Type 2)",
   "Charging Network": "",
   "Power (kW)": null,
   "Hardware brand": "Tesla",
   "Address": "200 Horderns Rd, Bowral NSW 2576, Australia",
   "Postcode": 2576
 },
 {
   "latitude": -33.8961195,
   "longitude": 151.1951555,
   "Charger type": "AC (level 2)",
   "Name": "Mirvac South Eveleigh",
   "State": "NSW",
   "stations": 4,
   "Plug types": "Tesla (Type 2)",
   "Charging Network": "Chargefox",
   "Power (kW)": null,
   "Hardware brand": "",
   "Address": "2 Central Ave, Eveleigh NSW 2015, Australia",
   "Postcode": 2015
 },
 {
   "latitude": -33.7673709,
   "longitude": 150.8217792,
   "Charger type": "AC (level 2)",
   "Name": "Mount Druitt Hub",
   "State": "NSW",
   "stations": 1,
   "Plug types": "Tesla (Type 2)",
   "Charging Network": "Chargefox",
   "Power (kW)": null,
   "Hardware brand": "",
   "Address": "9 Ayres Grove, Mount Druitt NSW 2770, Australia",
   "Postcode": 2770
 },
 {
   "latitude": -34.8402325,
   "longitude": 150.7320802,
   "Charger type": "AC (level 2)",
   "Name": "Mountain Ridge Wines",
   "State": "NSW",
   "stations": 2,
   "Plug types": "Type 2",
   "Charging Network": "EVUp",
   "Power (kW)": 22,
   "Hardware brand": "",
   "Address": "11 Coolangatta Rd, Coolangatta NSW 2535, Australia",
   "Postcode": 2535
 },
 {
   "latitude": -32.7389826,
   "longitude": 151.8672424,
   "Charger type": "AC (level 2)",
   "Name": "Muir St Parking/Charging",
   "State": "NSW",
   "stations": 2,
   "Plug types": "Tesla (Type 2)",
   "Charging Network": "Chargefox",
   "Power (kW)": null,
   "Hardware brand": "",
   "Address": "6 Muir St, Medowie NSW 2318, Australia",
   "Postcode": 2318
 },
 {
   "latitude": -33.3934017,
   "longitude": 151.3293208,
   "Charger type": "AC (level 2)",
   "Name": "Narara Ecovillage Coffee Cart",
   "State": "NSW",
   "stations": 1,
   "Plug types": "Type 2",
   "Charging Network": "",
   "Power (kW)": null,
   "Hardware brand": "",
   "Address": "30 Gugandi Rd, Narara NSW 2250, Australia",
   "Postcode": 2250
 },
 {
   "latitude": -32.8708409,
   "longitude": 151.7936776,
   "Charger type": "AC (level 2)",
   "Name": "Newcastle Links Motel",
   "State": "NSW",
   "stations": 1,
   "Plug types": "Tesla (Type 2)",
   "Charging Network": "",
   "Power (kW)": null,
   "Hardware brand": "",
   "Address": "1024 Nelson Bay Rd, Fern Bay NSW 2295, Australia",
   "Postcode": 2295
 },
 {
   "latitude": -33.8381725,
   "longitude": 151.0526388,
   "Charger type": "AC (level 2)",
   "Name": "NHP Electrical Engineering Products Pty Ltd",
   "State": "NSW",
   "stations": 1,
   "Plug types": "J-1772",
   "Charging Network": "",
   "Power (kW)": null,
   "Hardware brand": "",
   "Address": "30-34 Day St N, Silverwater NSW 2128, Australia",
   "Postcode": 2128
 },
 {
   "latitude": -33.8269518,
   "longitude": 151.199066,
   "Charger type": "AC (level 2)",
   "Name": "Nicholson St Carpark",
   "State": "NSW",
   "stations": 1,
   "Plug types": "Tesla (Type 2)",
   "Charging Network": "",
   "Power (kW)": null,
   "Hardware brand": "",
   "Address": "19 Nicholson St, Wollstonecraft NSW 2065, Australia",
   "Postcode": 2065
 },
 {
   "latitude": -32.9334094,
   "longitude": 151.7585158,
   "Charger type": "AC (level 2)",
   "Name": "No. 2 Sportsground",
   "State": "NSW",
   "stations": 4,
   "Plug types": "Type 2",
   "Charging Network": "Chargefox",
   "Power (kW)": 22,
   "Hardware brand": "",
   "Address": "Smith St, Newcastle West NSW 2302, Australia",
   "Postcode": 2302
 },
 {
   "latitude": -30.2873987,
   "longitude": 153.1271838,
   "Charger type": "AC (level 2)",
   "Name": "North Coast Power and Water",
   "State": "NSW",
   "stations": 1,
   "Plug types": "Type 2",
   "Charging Network": "",
   "Power (kW)": null,
   "Hardware brand": "Tesla",
   "Address": "13 Gdt Seccombe Cl, Coffs Harbour NSW 2450, Australia",
   "Postcode": 2450
 },
 {
   "latitude": -33.8272798,
   "longitude": 151.2017211,
   "Charger type": "AC (level 2)",
   "Name": "North Sydney Council- Woolworths Car Park Crows Nest",
   "State": "NSW",
   "stations": 2,
   "Plug types": "Tesla (Type 2)",
   "Charging Network": "",
   "Power (kW)": null,
   "Hardware brand": "",
   "Address": "10 Falcon St, Crows Nest NSW 2065, Australia",
   "Postcode": 2065
 },
 {
   "latitude": -33.7503396,
   "longitude": 151.2862494,
   "Charger type": "AC (level 2)",
   "Name": "PCYC Carpark - 2",
   "State": "NSW",
   "stations": 3,
   "Plug types": "Tesla (Type 2)",
   "Charging Network": "",
   "Power (kW)": null,
   "Hardware brand": "",
   "Address": "40 Kingsway, Dee Why NSW 2099, Australia",
   "Postcode": 2099
 },
 {
   "latitude": -33.7376217,
   "longitude": 151.0709729,
   "Charger type": "AC (level 2)",
   "Name": "Pennant Hills Market Place",
   "State": "NSW",
   "stations": 2,
   "Plug types": "Tesla (Type 2)",
   "Charging Network": "",
   "Power (kW)": 22,
   "Hardware brand": "",
   "Address": "shop 17/10 Hillcrest Rd, Pennant Hills NSW 2120, Australia",
   "Postcode": 2120
 },
 {
   "latitude": -33.7379428,
   "longitude": 150.6918074,
   "Charger type": "AC (level 2)",
   "Name": "Penrith Nissan",
   "State": "NSW",
   "stations": 1,
   "Plug types": "Type 2",
   "Charging Network": "Chargefox",
   "Power (kW)": null,
   "Hardware brand": "",
   "Address": "2140 Castlereagh Rd, Penrith NSW 2750, Australia",
   "Postcode": 2750
 },
 {
   "latitude": -33.6779119,
   "longitude": 151.2931622,
   "Charger type": "AC (level 2)",
   "Name": "Pittwater RSL Club",
   "State": "NSW",
   "stations": 2,
   "Plug types": "Type 2",
   "Charging Network": "",
   "Power (kW)": null,
   "Hardware brand": "",
   "Address": "80-82 Mona Vale Rd, Mona Vale NSW 2103, Australia",
   "Postcode": 2103
 },
 {
   "latitude": -33.9305044,
   "longitude": 151.2467569,
   "Charger type": "AC (level 2)",
   "Name": "Randwick Community Centre",
   "State": "NSW",
   "stations": 2,
   "Plug types": "Type 2",
   "Charging Network": "Chargefox",
   "Power (kW)": null,
   "Hardware brand": "",
   "Address": "27 Munda St, Randwick NSW 2031, Australia",
   "Postcode": 2031
 },
 {
   "latitude": -33.9138492,
   "longitude": 151.2393362,
   "Charger type": "AC (level 2)",
   "Name": "Randwick Junction",
   "State": "NSW",
   "stations": 2,
   "Plug types": "Tesla (Type 2)",
   "Charging Network": "Chargefox",
   "Power (kW)": null,
   "Hardware brand": "",
   "Address": "18 Silver St, Randwick NSW 2031, Australia",
   "Postcode": 2031
 },
 {
   "latitude": -33.8351248,
   "longitude": 151.084473,
   "Charger type": "AC (level 2)",
   "Name": "Rhodes Waterside",
   "State": "NSW",
   "stations": 4,
   "Plug types": "J-1772",
   "Charging Network": "Chargefox",
   "Power (kW)": null,
   "Hardware brand": "",
   "Address": "1 Rider Blvd, Rhodes NSW 2138, Australia",
   "Postcode": 2138
 },
 {
   "latitude": -33.833291,
   "longitude": 151.2073294,
   "Charger type": "AC (level 2)",
   "Name": "Ridge St Carpark",
   "State": "NSW",
   "stations": 2,
   "Plug types": "J-1772",
   "Charging Network": "",
   "Power (kW)": null,
   "Hardware brand": "",
   "Address": "1 James Pl, North Sydney NSW 2060, Australia",
   "Postcode": 2060
 },
 {
   "latitude": -30.6423576,
   "longitude": 153.0038117,
   "Charger type": "AC (level 2)",
   "Name": "Ridge St Parking/Charging",
   "State": "NSW",
   "stations": 1,
   "Plug types": "J-1772",
   "Charging Network": "",
   "Power (kW)": null,
   "Hardware brand": "",
   "Address": "23 Ridge St, Nambucca Heads NSW 2448, Australia",
   "Postcode": 2448
 },
 {
   "latitude": -30.7059726,
   "longitude": 152.9192586,
   "Charger type": "AC (level 2)",
   "Name": "River Street Car Park",
   "State": "NSW",
   "stations": 1,
   "Plug types": "Type 2",
   "Charging Network": "",
   "Power (kW)": null,
   "Hardware brand": "",
   "Address": "999 Princess St, Macksville NSW 2447, Australia",
   "Postcode": 2447
 },
 {
   "latitude": -33.7713922,
   "longitude": 150.845071,
   "Charger type": "DC (level 3)",
   "Name": "Rooty Hill Station Commuter Carpark",
   "State": "NSW",
   "stations": 10,
   "Plug types": "Both CHAdeMO & CCS Combo 2/SAE",
   "Charging Network": "Chargefox",
   "Power (kW)": null,
   "Hardware brand": "",
   "Address": "1 Station St, Rooty Hill NSW 2766, Australia",
   "Postcode": 2766
 },
 {
   "latitude": -33.8716222,
   "longitude": 151.2681738,
   "Charger type": "AC (level 2)",
   "Name": "Rose Bay Shopping",
   "State": "NSW",
   "stations": 2,
   "Plug types": "Tesla (Roadster)",
   "Charging Network": "Chargefox",
   "Power (kW)": 22,
   "Hardware brand": "",
   "Address": "2A Richmond Rd, Rose Bay NSW 2029, Australia",
   "Postcode": 2029
 },
 {
   "latitude": -35.0463072,
   "longitude": 150.6703145,
   "Charger type": "AC (level 2)",
   "Name": "Sea Mist Jervis Bay",
   "State": "NSW",
   "stations": 1,
   "Plug types": "Tesla (Type 2)",
   "Charging Network": "Everty",
   "Power (kW)": 22,
   "Hardware brand": "",
   "Address": "13 Berry St, Huskisson NSW 2540, Australia",
   "Postcode": 2540
 },
 {
   "latitude": -33.7747435,
   "longitude": 150.9362842,
   "Charger type": "DC (level 3)",
   "Name": "Seven Hills Railway Station Carpark",
   "State": "NSW",
   "stations": 1,
   "Plug types": "Both CHAdeMO & CCS Combo 2/SAE",
   "Charging Network": "Chargefox",
   "Power (kW)": 7,
   "Hardware brand": "",
   "Address": "Boomerang Pl, Seven Hills NSW 2147, Australia",
   "Postcode": 2147
 },
 {
   "latitude": -34.9761042,
   "longitude": 149.0082813,
   "Charger type": "AC (level 2)",
   "Name": "Shaw Wines",
   "State": "NSW",
   "stations": 3,
   "Plug types": "Type 2",
   "Charging Network": "",
   "Power (kW)": null,
   "Hardware brand": "",
   "Address": "34 Isabel Dr, Murrumbateman NSW 2582, Australia",
   "Postcode": 2582
 },
 {
   "latitude": -33.9268152,
   "longitude": 151.1867504,
   "Charger type": "DC (level 3)",
   "Name": "Social Eatery Connect Corporate Centre",
   "State": "NSW",
   "stations": 2,
   "Plug types": "Both CHAdeMO & CCS Combo 2/SAE",
   "Charging Network": "Chargefox",
   "Power (kW)": null,
   "Hardware brand": "",
   "Address": "185 O'Riordan St, Mascot NSW 2020, Australia",
   "Postcode": 2020
 },
 {
   "latitude": -32.7780074,
   "longitude": 151.2713445,
   "Charger type": "AC (level 2)",
   "Name": "Spicer's Guesthouse",
   "State": "NSW",
   "stations": 2,
   "Plug types": "Type 2",
   "Charging Network": "",
   "Power (kW)": null,
   "Hardware brand": "",
   "Address": "Ekerts Rd, Pokolbin NSW 2320, Australia",
   "Postcode": 2320
 },
 {
   "latitude": -33.7299009,
   "longitude": 151.1585895,
   "Charger type": "DC (level 3)",
   "Name": "St Ives Shopping Village",
   "State": "NSW",
   "stations": 1,
   "Plug types": "Both CHAdeMO & CCS Combo 2/SAE",
   "Charging Network": "Chargefox",
   "Power (kW)": null,
   "Hardware brand": "",
   "Address": "166 Mona Vale Rd, St Ives NSW 2075, Australia",
   "Postcode": 2075
 },
 {
   "latitude": -33.7186167,
   "longitude": 150.9200078,
   "Charger type": "AC (level 2)",
   "Name": "Stanhope Gardens Village",
   "State": "NSW",
   "stations": 1,
   "Plug types": "J-1772",
   "Charging Network": "Chargefox",
   "Power (kW)": null,
   "Hardware brand": "",
   "Address": "2 Sentry Dr, Stanhope Gardens NSW 2768, Australia",
   "Postcode": 2768
 },
 {
   "latitude": -33.7186167,
   "longitude": 150.9200078,
   "Charger type": "AC (level 2)",
   "Name": "Stanhope Village Shopping Centre",
   "State": "NSW",
   "stations": 2,
   "Plug types": "Tesla (Type 2)",
   "Charging Network": "Chargefox",
   "Power (kW)": null,
   "Hardware brand": "",
   "Address": "2 Sentry Dr, Stanhope Gardens NSW 2768, Australia",
   "Postcode": 2768
 },
 {
   "latitude": -33.8721739,
   "longitude": 151.0935841,
   "Charger type": "AC (level 2)",
   "Name": "Strathfield Square Parking",
   "State": "NSW",
   "stations": 1,
   "Plug types": "J-1772",
   "Charging Network": "",
   "Power (kW)": 7,
   "Hardware brand": "",
   "Address": "5 Churchill Ave, Strathfield NSW 2135, Australia",
   "Postcode": 2135
 },
 {
   "latitude": -33.9112217,
   "longitude": 151.2106444,
   "Charger type": "AC (level 2)",
   "Name": "Suttons City Nissan",
   "State": "NSW",
   "stations": 2,
   "Plug types": "Type 2",
   "Charging Network": "Chargefox",
   "Power (kW)": null,
   "Hardware brand": "",
   "Address": "118-130 Epsom Rd, Zetland NSW 2017, Australia",
   "Postcode": 2017
 },
 {
   "latitude": -27.6163325,
   "longitude": 153.1235879,
   "Charger type": "AC (level 2)",
   "Name": "Suzi Auto Services & OZ DIY EV",
   "State": "QLD",
   "stations": 1,
   "Plug types": "J-1772",
   "Charging Network": "",
   "Power (kW)": null,
   "Hardware brand": "",
   "Address": "3339 Pacific Hwy, Underwood QLD 4119, Australia",
   "Postcode": 4119
 },
 {
   "latitude": -33.813922,
   "longitude": 151.169515,
   "Charger type": "AC (level 2)",
   "Name": "The Canopy Lane Cove - P3",
   "State": "NSW",
   "stations": 3,
   "Plug types": "J-1772",
   "Charging Network": "",
   "Power (kW)": null,
   "Hardware brand": "",
   "Address": "2/24 Birdwood Ln, Sydney NSW 2066, Australia",
   "Postcode": 2066
 },
 {
   "latitude": -28.8630196,
   "longitude": 153.0676276,
   "Charger type": "AC (level 2)",
   "Name": "The Clydesdale Motel & Steakhouse",
   "State": "NSW",
   "stations": 1,
   "Plug types": "Tesla (Type 2)",
   "Charging Network": "EVUp",
   "Power (kW)": null,
   "Hardware brand": "",
   "Address": "Clydesdale Motel, 143 Johnston St, Casino NSW 2470, Australia",
   "Postcode": 2470
 },
 {
   "latitude": -33.7957097,
   "longitude": 151.1888199,
   "Charger type": "AC (level 2)",
   "Name": "The Mix Chatswood Carpark",
   "State": "NSW",
   "stations": 1,
   "Plug types": "J-1772",
   "Charging Network": "",
   "Power (kW)": null,
   "Hardware brand": "",
   "Address": "46 Hercules St, Chatswood NSW 2067, Australia",
   "Postcode": 2067
 },
 {
   "latitude": -34.4863889,
   "longitude": 150.8897222,
   "Charger type": "AC (level 2)",
   "Name": "The Place @ Warrawong Plaza",
   "State": "NSW",
   "stations": 2,
   "Plug types": "J-1772",
   "Charging Network": "",
   "Power (kW)": null,
   "Hardware brand": "",
   "Address": "Cnr King &, Cowper St, Warrawong NSW 2502, Australia",
   "Postcode": 2502
 },
 {
   "latitude": -35.9061213,
   "longitude": 150.1374946,
   "Charger type": "AC (level 2)",
   "Name": "The Seabird",
   "State": "NSW",
   "stations": 2,
   "Plug types": "Tesla (Type 2)",
   "Charging Network": "",
   "Power (kW)": null,
   "Hardware brand": "",
   "Address": "103 Bruce Cameron Dr, Moruya NSW 2537, Australia",
   "Postcode": 2537
 },
 {
   "latitude": -28.6596769,
   "longitude": 153.6151704,
   "Charger type": "AC (level 2)",
   "Name": "The Sunseeker Byron Bay",
   "State": "NSW",
   "stations": 1,
   "Plug types": "J-1772",
   "Charging Network": "",
   "Power (kW)": null,
   "Hardware brand": "",
   "Address": "100 Bangalow Rd, Byron Bay NSW 2481, Australia",
   "Postcode": 2481
 },
 {
   "latitude": -33.8832202,
   "longitude": 151.1986639,
   "Charger type": "AC (level 2)",
   "Name": "Thomas Street Carpark",
   "State": "NSW",
   "stations": 2,
   "Plug types": "Tesla (Type 2)",
   "Charging Network": "Everty",
   "Power (kW)": 22,
   "Hardware brand": "",
   "Address": "25 Thomas St, Ultimo NSW 2007, Australia",
   "Postcode": 2007
 },
 {
   "latitude": -33.8102014,
   "longitude": 151.1060251,
   "Charger type": "AC (level 2)",
   "Name": "Top Ryde City Shopping Centre",
   "State": "NSW",
   "stations": 2,
   "Plug types": "Type 2",
   "Charging Network": "Chargefox",
   "Power (kW)": null,
   "Hardware brand": "",
   "Address": "Blaxland Rd & Devlin St, Ryde NSW 2112, Australia",
   "Postcode": 2112
 },
 {
   "latitude": -33.8761055,
   "longitude": 151.1783737,
   "Charger type": "AC (level 2)",
   "Name": "Tramsheds Harold Park",
   "State": "NSW",
   "stations": 1,
   "Plug types": "Tesla (Type 2)",
   "Charging Network": "Chargefox",
   "Power (kW)": null,
   "Hardware brand": "",
   "Address": "1 Dalgal Way, Forest Lodge NSW 2037, Australia",
   "Postcode": 2037
 },
 {
   "latitude": -28.2855694,
   "longitude": 153.5252895,
   "Charger type": "AC (level 2)",
   "Name": "Tropical Fruit World",
   "State": "NSW",
   "stations": 1,
   "Plug types": "Type 2",
   "Charging Network": "Chargefox",
   "Power (kW)": null,
   "Hardware brand": "",
   "Address": "Tropical Fruit World, 29 Duranbah Rd, Duranbah NSW 2487, Australia",
   "Postcode": 2487
 },
 {
   "latitude": -33.9188055,
   "longitude": 151.234467,
   "Charger type": "AC (level 2)",
   "Name": "UNSW",
   "State": "NSW",
   "stations": 6,
   "Plug types": "J-1772",
   "Charging Network": "Chargefox",
   "Power (kW)": null,
   "Hardware brand": "",
   "Address": "20 Oval Ln, Kensington NSW 2033, Australia",
   "Postcode": 2033
 },
 {
   "latitude": -32.8927718,
   "longitude": 151.7041775,
   "Charger type": "AC (level 2)",
   "Name": "UoN P4 Carpark",
   "State": "NSW",
   "stations": 4,
   "Plug types": "Type 2",
   "Charging Network": "",
   "Power (kW)": null,
   "Hardware brand": "",
   "Address": "University Dr, Callaghan NSW 2308, Australia",
   "Postcode": 2308
 },
 {
   "latitude": -32.8927718,
   "longitude": 151.7041775,
   "Charger type": "AC (level 2)",
   "Name": "UoN P6 Carpark",
   "State": "NSW",
   "stations": 4,
   "Plug types": "Tesla (Type 2)",
   "Charging Network": "Chargefox",
   "Power (kW)": null,
   "Hardware brand": "",
   "Address": "University Dr, Callaghan NSW 2308, Australia",
   "Postcode": 2308
 },
 {
   "latitude": -33.9113775,
   "longitude": 150.935893,
   "Charger type": "AC (level 2)",
   "Name": "Volvo Cars Liverpool",
   "State": "NSW",
   "stations": 1,
   "Plug types": "Type 2",
   "Charging Network": "",
   "Power (kW)": null,
   "Hardware brand": "",
   "Address": "13 Hume Hwy, Warwick Farm NSW 2170, Australia",
   "Postcode": 2170
 },
 {
   "latitude": -32.902986,
   "longitude": 151.6674429,
   "Charger type": "AC (level 2)",
   "Name": "Wallsend Village",
   "State": "NSW",
   "stations": 2,
   "Plug types": "Tesla (Type 2)",
   "Charging Network": "Tesla Destination",
   "Power (kW)": 22,
   "Hardware brand": "",
   "Address": "80 Cowper St, Wallsend NSW 2287, Australia",
   "Postcode": 2287
 },
 {
   "latitude": -34.4853486,
   "longitude": 150.8875421,
   "Charger type": "AC (level 2)",
   "Name": "Warrawong Plaza - JAX Tyres",
   "State": "NSW",
   "stations": 2,
   "Plug types": "J-1772",
   "Charging Network": "EVUp",
   "Power (kW)": 22,
   "Hardware brand": "",
   "Address": "Cowper St & King St, Warrawong NSW 2502, Australia",
   "Postcode": 2502
 },
 {
   "latitude": -33.7980745,
   "longitude": 151.1844265,
   "Charger type": "AC (level 2)",
   "Name": "Westfield Chatswood Rooftop Parking",
   "State": "NSW",
   "stations": 4,
   "Plug types": "Tesla (Type 2)",
   "Charging Network": "Chargefox",
   "Power (kW)": 7,
   "Hardware brand": "",
   "Address": "52 Albert Ave, Chatswood NSW 2067, Australia",
   "Postcode": 2067
 },
 {
   "latitude": -32.9258168,
   "longitude": 151.7791751,
   "Charger type": "AC (level 2)",
   "Name": "Wharf Rd Carpark",
   "State": "NSW",
   "stations": 4,
   "Plug types": "Type 2",
   "Charging Network": "Chargefox",
   "Power (kW)": null,
   "Hardware brand": "",
   "Address": "209 Wharf Rd, Newcastle NSW 2300, Australia",
   "Postcode": 2300
 },
 {
   "latitude": -32.9503524,
   "longitude": 151.1820861,
   "Charger type": "AC (level 2)",
   "Name": "Wild Edge Retreat",
   "State": "NSW",
   "stations": 2,
   "Plug types": "J-1772",
   "Charging Network": "",
   "Power (kW)": null,
   "Hardware brand": "Tesla",
   "Address": "Wild Edge Retreat, 260 Craft Rd, Wollombi NSW 2325, Australia",
   "Postcode": 2325
 },
 {
   "latitude": -33.8710864,
   "longitude": 151.2144742,
   "Charger type": "DC (level 3)",
   "Name": "Wilson Parking Domain Car Park",
   "State": "NSW",
   "stations": 2,
   "Plug types": "Both CHAdeMO & CCS Combo 2/SAE",
   "Charging Network": "",
   "Power (kW)": null,
   "Hardware brand": "",
   "Address": "St Marys Rd, Sydney NSW 2000, Australia",
   "Postcode": 2000
 },
 {
   "latitude": -33.8593398,
   "longitude": 151.2135232,
   "Charger type": "AC (level 2)",
   "Name": "Wilson Secure Parking Opera House",
   "State": "NSW",
   "stations": 2,
   "Plug types": "Tesla (Type 2)",
   "Charging Network": "",
   "Power (kW)": null,
   "Hardware brand": "",
   "Address": "2A Macquarie St, Sydney NSW 2000, Australia",
   "Postcode": 2000
 },
 {
   "latitude": -34.4234883,
   "longitude": 150.8922583,
   "Charger type": "DC (level 3)",
   "Name": "Wollongong Central - P1 Basement",
   "State": "NSW",
   "stations": 1,
   "Plug types": "Both CHAdeMO & CCS Combo 2/SAE",
   "Charging Network": "",
   "Power (kW)": null,
   "Hardware brand": "",
   "Address": "71 Market St, Wollongong NSW 2500, Australia",
   "Postcode": 2500
 }
]